Id,Time(seconds),Time(text),Latitude,Longitude,FlightMode,Altitude(feet),Altitude(meters),Speed(mph),Speed(m/s),HomeDistance(feet),HomeDistance(meters),HomeLatitude,HomeLongitude,GpsCount,BatteryPower(%),BatteryVoltage,BatteryVoltageDeviation,BatteryCell1Voltage,BatteryCell2Voltage,BatteryCell3Voltage,BatteryCell4Voltage,VelocityX,VelocityY,VelocityZ,Pitch,Roll,Yaw,RcAileron,RcElevator,RcGyro,RcRudder,RcThrottle,NonGpsError,GoHomeStatus,AppTip,AppWarning,AppMessage
1,0.9,0m 0.9s,51.93767586,5.70387255,P-GPS,0.0,0.0,0.0,0.0,0.0,0.0,51.93767575,5.70387256,18,32,15.09,0.003,3.771,3.773,3.772,3.774,0,0,0,-0.8,-0.3,15.3,1024,1024,1024,1024,783,,,,GEO: You are in a Warning Zone (Class D Airspace). Fly with caution.,
2,1,0m 1s,51.93767586,5.70387255,P-GPS,0.0,0.0,0.0,0.0,0.0,0.0,51.93767575,5.70387256,18,32,15.09,0.003,3.771,3.773,3.772,3.774,0,0,0,-0.8,-0.3,15.3,1024,1024,1024,1024,880,,,,,
3,1.1,0m 1.1s,51.93767586,5.70387255,P-GPS,0.0,0.0,0.0,0.0,0.0,0.0,51.93767575,5.70387256,18,32,15.09,0.003,3.771,3.773,3.772,3.774,0,0,0,-0.8,-0.3,15.3,1024,1024,1024,1024,963,,,,,
4,1.2,0m 1.2s,51.93767597,5.70387244,P-GPS,0.0,0.0,1.1,0.5,0.0,0.0,51.93767575,5.70387256,18,32,15.09,0.003,3.771,3.773,3.772,3.774,0,0,0,-0.8,-0.3,15.3,1024,1024,1024,1023,1024,,,,,
5,1.4,0m 1.4s,51.93767597,5.70387245,P-GPS,0.0,0.0,0.7,0.3,0.0,0.0,51.93767575,5.70387256,18,32,15.09,0.003,3.771,3.773,3.772,3.774,0,0,0,-0.8,-0.3,15.3,1024,1024,1024,1024,1024,,,,,
6,1.5,0m 1.5s,51.93767596,5.70387245,P-GPS,0.0,0.0,0.0,0.0,0.0,0.0,51.93767575,5.70387256,18,32,15.09,0.003,3.771,3.773,3.772,3.774,0,0,0,-0.8,-0.3,15.3,1024,1024,1024,1024,1024,,,,,
7,1.6,0m 1.6s,51.93767597,5.70387245,P-GPS,0.0,0.0,0.0,0.0,0.0,0.0,51.93767575,5.70387256,18,32,15.09,0.003,3.771,3.773,3.772,3.774,0,0,0,-0.8,-0.3,15.3,1024,1024,1024,1024,1024,,,,,
8,1.7,0m 1.7s,51.93767597,5.70387245,P-GPS,0.0,0.0,0.0,0.0,0.0,0.0,51.93767575,5.70387256,18,32,15.09,0.003,3.771,3.773,3.772,3.774,0,0,0,-0.7,-0.3,15.3,1024,1024,1024,1024,1024,,,,,
9,1.8,0m 1.8s,51.93767597,5.70387235,P-GPS,0.0,0.0,0.0,0.0,0.0,0.0,51.93767575,5.70387256,18,32,15.09,0.003,3.771,3.773,3.772,3.774,0,0,0,-0.8,-0.3,15.4,1024,1024,1024,1023,1024,,,,,
10,1.9,0m 1.9s,51.93767597,5.70387236,P-GPS,0.0,0.0,0.0,0.0,0.0,0.0,51.93767575,5.70387256,18,32,15.09,0.003,3.771,3.773,3.772,3.774,0,0,0,-0.8,-0.3,15.4,1024,1024,1024,1024,1024,,,,,
11,2,0m 2s,51.93767607,5.70387236,Manual Takeoff,0.0,0.0,0.0,0.0,0.0,0.0,51.93767575,5.70387256,18,32,15.09,0.003,3.771,3.773,3.772,3.774,0,0,0,-0.8,-0.3,15.4,1024,1024,1024,1024,1024,,,,,
12,2.1,0m 2.1s,51.93767607,5.70387235,Manual Takeoff,0.0,0.0,0.0,0.0,0.0,0.0,51.93767575,5.70387256,18,32,15.09,0.003,3.771,3.773,3.772,3.774,0,0,0,-0.8,-0.3,15.4,1024,1024,1024,1024,1024,,,,,
13,2.2,0m 2.2s,51.93767607,5.70387235,Manual Takeoff,0.0,0.0,0.0,0.0,0.0,0.0,51.93767575,5.70387256,18,32,15.09,0.003,3.771,3.773,3.772,3.774,0,0,0,-0.8,-0.3,15.4,1024,1024,1024,1024,1024,,,,,RTH Altitude: 30M
14,2.3,0m 2.3s,51.93767607,5.70387235,Manual Takeoff,0.0,0.0,0.0,0.0,0.0,0.0,51.93767575,5.70387256,18,32,15.09,0.003,3.771,3.773,3.772,3.774,0,0,0,-0.8,-0.3,15.4,1024,1024,1024,1024,1024,,,,,
15,2.4,0m 2.4s,51.93767606,5.70387235,Manual Takeoff,0.0,0.0,0.0,0.0,0.0,0.0,51.93767575,5.70387256,18,32,15.09,0.003,3.771,3.773,3.772,3.774,0,0,0,-0.8,-0.3,15.4,1024,1024,1024,1024,1024,,,,,
16,2.5,0m 2.5s,51.93767606,5.70387234,Manual Takeoff,0.0,0.0,0.0,0.0,0.0,0.0,51.93767575,5.70387256,18,32,15.09,0.003,3.771,3.773,3.772,3.774,0,0,0,-0.8,-0.3,15.4,1024,1024,1024,1024,1024,,,,,
17,2.6,0m 2.6s,51.93767606,5.70387224,Manual Takeoff,0.0,0.0,1.5,0.7,0.0,0.0,51.93767575,5.70387256,18,32,15.09,0.003,3.771,3.773,3.772,3.774,0,0,0,-0.8,-0.3,15.4,1024,1024,1024,1024,1024,,,,,
18,2.7,0m 2.7s,51.93767606,5.70387224,Manual Takeoff,0.0,0.0,1.5,0.7,0.0,0.0,51.93767575,5.70387256,18,32,15.09,0.003,3.771,3.773,3.772,3.774,0,0,0,-0.8,-0.3,15.4,1024,1024,1024,1024,1024,,,,,
19,2.8,0m 2.8s,51.93767616,5.70387223,Manual Takeoff,0.0,0.0,0.0,0.0,0.0,0.0,51.93767575,5.70387256,18,32,15.09,0.003,3.771,3.773,3.772,3.774,0,0,0,-0.8,-0.3,15.4,1024,1024,1024,1024,1024,,,,,
20,2.9,0m 2.9s,51.93767616,5.70387223,Manual Takeoff,0.0,0.0,0.0,0.0,0.0,0.0,51.93767575,5.70387256,18,32,15.09,0.003,3.771,3.773,3.772,3.774,0,0,0,-0.8,-0.3,15.4,1024,1024,1024,1024,1024,,,,,
21,3,0m 3s,51.93767616,5.70387213,Manual Takeoff,0.0,0.0,0.0,0.0,0.0,0.0,51.93767575,5.70387256,18,32,15.025,0.015,3.754,3.748,3.76,3.763,0,0,0,-0.8,-0.3,15.4,1024,1024,1024,1024,1034,,,,,
22,3.1,0m 3.1s,51.93767616,5.70387212,Manual Takeoff,0.0,0.0,0.0,0.0,0.0,0.0,51.93767575,5.70387256,18,32,15.025,0.015,3.754,3.748,3.76,3.763,0,0,0,-0.8,-0.3,15.5,1024,1024,1024,1024,1097,,,,,
23,3.2,0m 3.2s,51.93767616,5.70387212,Manual Takeoff,0.0,0.0,0.0,0.0,0.0,0.0,51.93767575,5.70387256,18,32,15.025,0.015,3.754,3.748,3.76,3.763,0,0,0,-0.8,-0.3,15.5,1024,1024,1024,1024,1148,,,,,
24,3.3,0m 3.3s,51.93767616,5.70387212,Manual Takeoff,0.0,0.0,0.0,0.0,0.0,0.0,51.93767575,5.70387256,18,32,15.025,0.015,3.754,3.748,3.76,3.763,0,0,0,-0.8,-0.3,15.5,1024,1024,1024,1024,1175,,,,,
25,3.4,0m 3.4s,51.93767616,5.70387211,Manual Takeoff,0.0,0.0,0.0,0.0,0.0,0.0,51.93767575,5.70387256,18,32,15.025,0.015,3.754,3.748,3.76,3.763,0,0,0,-0.7,-0.3,15.5,1024,1024,1024,1024,1176,,,,,
26,3.5,0m 3.5s,51.93767616,5.70387211,Manual Takeoff,0.0,0.0,0.0,0.0,0.0,0.0,51.93767575,5.70387256,18,32,15.025,0.015,3.754,3.748,3.76,3.763,0,0,0,-0.7,-0.3,15.4,1024,1024,1024,1024,1203,,,,,
27,3.6,0m 3.6s,51.93767616,5.70387211,Manual Takeoff,0.0,0.0,0.0,0.0,0.0,0.0,51.93767575,5.70387256,18,32,15.025,0.015,3.754,3.748,3.76,3.763,0,0,0,-0.7,-0.3,15.4,1024,1024,1024,1024,1206,,,,,
28,3.7,0m 3.7s,51.93767615,5.70387213,Manual Takeoff,0.0,0.0,0.0,0.0,0.0,0.0,51.93767575,5.70387256,18,32,15.025,0.015,3.754,3.748,3.76,3.763,0,0,0,-0.7,-0.3,15.4,1024,1024,1024,1024,1219,,,,,
29,3.8,0m 3.8s,51.93767625,5.70387202,Manual Takeoff,0.0,0.0,0.0,0.0,0.0,0.0,51.93767575,5.70387256,18,32,15.025,0.015,3.754,3.748,3.76,3.763,0,0,0,-0.6,-0.3,15.4,1024,1024,1024,1024,1239,,,,,
30,3.9,0m 3.9s,51.93767625,5.70387202,Manual Takeoff,0.0,0.0,0.0,0.0,0.0,0.0,51.93767575,5.70387256,18,32,15.025,0.015,3.754,3.748,3.76,3.763,0,0,0,-0.4,-0.4,15.3,1024,1024,1024,1024,1263,,,,,
31,4,0m 4s,51.93767624,5.70387201,Manual Takeoff,0.0,0.0,1.1,0.5,0.0,0.0,51.93767575,5.70387256,18,32,15.016,0.017,3.761,3.763,3.746,3.746,0,0,-0.1,0.3,-0.5,14.9,1024,1024,1024,1024,1273,,,,,
32,4.2,0m 4.2s,51.93767617,5.70387182,P-GPS,0.0,0.0,0.0,0.0,0.0,0.0,51.93767575,5.70387256,18,32,15.016,0.017,3.761,3.763,3.746,3.746,0,0,-0.4,2.1,-0.5,13.4,1024,1024,1024,1024,1296,,,,,
33,4.3,0m 4.3s,51.9376761,5.70387174,P-GPS,0.0,0.0,0.0,0.0,0.0,0.0,51.93767575,5.70387256,18,32,15.016,0.017,3.761,3.763,3.746,3.746,-0.1,0,-0.4,1.3,-0.4,12.8,1024,1024,1024,1024,1296,,,,,
34,4.5,0m 4.5s,51.93767594,5.7038715,P-GPS,0.3,0.1,0.0,0.0,0.0,0.0,51.93767575,5.70387256,18,32,15.016,0.017,3.761,3.763,3.746,3.746,-0.1,0,-0.5,0.6,-0.1,12.3,1024,1024,1024,1024,1329,,,,,
35,4.6,0m 4.6s,51.93767572,5.70387132,P-GPS,0.7,0.2,0.0,0.0,0.0,0.0,51.93767575,5.70387256,18,32,15.016,0.017,3.761,3.763,3.746,3.746,-0.1,0,-0.7,0.2,0,12.3,1024,1024,1024,1024,1329,,,,,
36,4.7,0m 4.7s,51.9376756,5.70387127,P-GPS,0.7,0.2,0.0,0.0,0.3,0.1,51.93767575,5.70387256,18,32,15.016,0.017,3.761,3.763,3.746,3.746,-0.1,0,-0.8,-0.2,0.1,12.3,1024,1024,1024,1024,1347,,,,,
37,4.8,0m 4.8s,51.93767536,5.7038711,P-GPS,1.0,0.3,0.0,0.0,0.4,0.1,51.93767575,5.70387256,18,32,15.016,0.017,3.761,3.763,3.746,3.746,-0.1,0,-0.9,-0.3,0.1,12.3,1024,1024,1024,1024,1344,,,,,
38,4.9,0m 4.9s,51.93767523,5.70387108,P-GPS,1.3,0.4,1.1,0.5,0.4,0.1,51.93767575,5.70387256,18,32,15.016,0.017,3.761,3.763,3.746,3.746,-0.1,0,-1,-0.4,0.4,12.2,1024,1024,1024,1024,1329,,,,,
39,5,0m 5s,51.9376752,5.70387102,P-GPS,1.6,0.5,0.0,0.0,0.0,0.0,51.93767575,5.70387256,19,32,15.016,0.017,3.761,3.763,3.746,3.746,-0.1,0,-1.1,-1.1,0.4,12.2,1024,1024,1024,1024,1325,,,,,
40,5.1,0m 5.1s,51.93767511,5.70387106,P-GPS,2.3,0.7,0.0,0.0,0.4,0.1,51.93767575,5.70387256,19,32,14.507,0.022,3.638,3.622,3.616,3.631,0,0,-1.2,-1.7,0.1,12.4,1024,1024,1024,1024,1313,,,,,
41,5.2,0m 5.2s,51.93767502,5.70387112,P-GPS,2.6,0.8,0.0,0.0,0.4,0.1,51.93767575,5.70387256,19,32,14.507,0.022,3.638,3.622,3.616,3.631,0,0,-1.3,-1.9,-0.3,12.7,1024,1024,1024,1024,1316,,,,,
42,5.3,0m 5.3s,51.93767499,5.70387111,P-GPS,3.3,1.0,0.0,0.0,0.4,0.1,51.93767575,5.70387256,19,32,14.507,0.022,3.638,3.622,3.616,3.631,0,0,-1.4,-1.7,-0.5,13,1024,1024,1024,1024,1318,,,,,
43,5.4,0m 5.4s,51.93767492,5.70387105,P-GPS,3.6,1.1,0.0,0.0,0.4,0.1,51.93767575,5.70387256,19,32,14.507,0.022,3.638,3.622,3.616,3.631,0,0,-1.3,-1.2,-0.3,13.3,1024,1024,1024,1024,1321,,,,,
44,5.5,0m 5.5s,51.93767496,5.70387107,P-GPS,3.9,1.2,0.0,0.0,0.4,0.1,51.93767575,5.70387256,19,32,14.507,0.022,3.638,3.622,3.616,3.631,0,0,-1.3,-0.9,0,13.5,1024,1024,1024,1024,1331,,,,,
45,5.6,0m 5.6s,51.93767506,5.70387098,P-GPS,4.6,1.4,0.0,0.0,0.4,0.1,51.93767575,5.70387256,19,32,14.507,0.022,3.638,3.622,3.616,3.631,0,0,-1.4,-0.8,0,13.7,1024,1024,1024,1024,1324,,,,,
46,5.7,0m 5.7s,51.93767513,5.703871,P-GPS,4.9,1.5,0.0,0.0,0.4,0.1,51.93767575,5.70387256,19,32,14.507,0.022,3.638,3.622,3.616,3.631,0,0,-1.4,-0.8,0,13.7,1024,1024,1024,1024,1323,,,,,
47,5.8,0m 5.8s,51.9376754,5.70387093,P-GPS,5.6,1.7,0.0,0.0,0.3,0.1,51.93767575,5.70387256,19,32,14.507,0.022,3.638,3.622,3.616,3.631,0,0,-1.5,-0.7,0.1,13.7,1024,1024,1024,1024,1329,,,,,
48,5.9,0m 5.9s,51.93767539,5.70387097,P-GPS,5.9,1.8,0.0,0.0,0.4,0.1,51.93767575,5.70387256,19,32,14.507,0.022,3.638,3.622,3.616,3.631,0.1,0,-1.5,-0.6,0.1,13.8,1024,1024,1024,1024,1343,,,,,
49,6,0m 6s,51.93767587,5.70387114,P-GPS,6.6,2.0,1.1,0.5,0.4,0.1,51.93767575,5.70387256,20,32,14.507,0.022,3.638,3.622,3.616,3.631,0.1,0.1,-1.5,-0.4,0.1,13.8,1024,1024,1024,1024,1365,,,,,
50,6.1,0m 6.1s,51.93767599,5.70387126,P-GPS,6.9,2.1,0.0,0.0,0.3,0.1,51.93767575,5.70387256,20,32,14.37,0.015,3.582,3.596,3.597,3.595,0.1,0.1,-1.5,0,0.2,13.9,1024,1024,1024,1024,1389,,,,,
51,6.2,0m 6.2s,51.93767656,5.70387146,P-GPS,7.5,2.3,0.0,0.0,0.4,0.1,51.93767575,5.70387256,20,32,14.37,0.015,3.582,3.596,3.597,3.595,0.2,0.1,-1.6,0.5,0.1,13.9,1024,1024,1024,1024,1411,,,,,
52,6.3,0m 6.3s,51.93767679,5.70387168,P-GPS,8.2,2.5,1.1,0.5,0.3,0.1,51.93767575,5.70387256,20,32,14.37,0.015,3.582,3.596,3.597,3.595,0.2,0.1,-1.7,1.3,-0.3,14.1,1024,1024,1024,1024,1439,,,,,
53,6.4,0m 6.4s,51.93767743,5.70387204,P-GPS,8.9,2.7,1.1,0.5,0.6,0.2,51.93767575,5.70387256,20,32,14.37,0.015,3.582,3.596,3.597,3.595,0.2,0.1,-1.9,2.2,-0.3,14.2,1024,1024,1024,1024,1432,,,,,
54,6.5,0m 6.5s,51.93767774,5.70387229,P-GPS,9.5,2.9,1.5,0.7,0.8,0.2,51.93767575,5.70387256,20,32,14.37,0.015,3.582,3.596,3.597,3.595,0.2,0.1,-2,2.8,-0.5,14.3,1024,1024,1024,1024,1441,,,,,
55,6.6,0m 6.6s,51.93767834,5.70387238,P-GPS,9.8,3.0,1.5,0.7,0.9,0.3,51.93767575,5.70387256,20,32,14.37,0.015,3.582,3.596,3.597,3.595,0.2,0.1,-2.1,3.5,-1,14.4,1024,1024,1024,1024,1465,,,,,
56,6.7,0m 6.7s,51.93767858,5.70387254,P-GPS,10.8,3.3,1.1,0.5,1.0,0.3,51.93767575,5.70387256,20,32,14.37,0.015,3.582,3.596,3.597,3.595,0.2,0,-2.2,4.1,-1,14.3,1024,1024,1024,1024,1471,,,,,
57,6.9,0m 6.9s,51.93767945,5.70387284,P-GPS,12.1,3.7,1.0,0.4,1.3,0.4,51.93767575,5.70387256,20,32,14.37,0.015,3.582,3.596,3.597,3.595,0.2,0,-2.4,5.2,0,14.3,1024,1024,1024,1024,1477,,,,,
58,7,0m 7s,51.93767994,5.70387305,P-GPS,13.1,4.0,1.0,0.4,1.5,0.5,51.93767575,5.70387256,20,32,14.37,0.015,3.582,3.596,3.597,3.595,0.1,0.1,-2.5,5.6,0,14.4,1024,1024,1024,1024,1477,,,,,
59,7.1,0m 7.1s,51.93768016,5.70387328,P-GPS,13.8,4.2,0.0,0.0,1.6,0.5,51.93767575,5.70387256,20,32,14.37,0.015,3.582,3.596,3.597,3.595,0,0.1,-2.5,5.9,0.1,14.5,1024,1024,1024,1024,1497,,,,,
60,7.2,0m 7.2s,51.93768073,5.70387325,P-GPS,14.8,4.5,0.0,0.0,1.8,0.6,51.93767575,5.70387256,20,32,14.37,0.015,3.582,3.596,3.597,3.595,0,0,-2.6,6,0,14.5,1024,1024,1024,1024,1501,,,,,
61,7.3,0m 7.3s,51.93768075,5.70387336,P-GPS,15.7,4.8,0.0,0.0,1.8,0.6,51.93767575,5.70387256,20,32,14.37,0.015,3.582,3.596,3.597,3.595,0,0,-2.6,6.3,-0.9,14.5,1024,1024,1024,1024,1502,,,,,
62,7.4,0m 7.4s,51.93768105,5.70387343,P-GPS,16.4,5.0,0.0,0.0,1.9,0.6,51.93767575,5.70387256,20,32,14.37,0.015,3.582,3.596,3.597,3.595,0,0,-2.7,6,-1.1,14.6,1024,1024,1024,1024,1501,,,,,
63,7.5,0m 7.5s,51.93768099,5.70387347,P-GPS,17.4,5.3,0.0,0.0,1.9,0.6,51.93767575,5.70387256,20,32,14.37,0.015,3.582,3.596,3.597,3.595,0,0,-2.8,5.2,0,14.4,1024,1024,1024,1024,1499,,,,,
64,7.6,0m 7.6s,51.93768124,5.7038735,P-GPS,18.4,5.6,0.0,0.0,2.0,0.6,51.93767575,5.70387256,20,32,14.37,0.015,3.582,3.596,3.597,3.595,0,0,-3,4.5,0.5,14.4,1024,1024,1024,1024,1498,,,,,
65,7.7,0m 7.7s,51.93768125,5.7038735,P-GPS,19.4,5.9,0.0,0.0,2.0,0.6,51.93767575,5.70387256,20,32,14.37,0.015,3.582,3.596,3.597,3.595,-0.1,0,-2.8,4.4,0.6,14.5,1024,1024,1024,1024,1491,,,,,
66,7.8,0m 7.8s,51.93768124,5.70387358,P-GPS,20.0,6.1,1.1,0.5,2.0,0.6,51.93767575,5.70387256,20,32,14.37,0.015,3.582,3.596,3.597,3.595,-0.1,0,-2.8,4.3,-0.4,14.5,1024,1024,1024,1024,1493,,,,,
67,7.9,0m 7.9s,51.93768115,5.70387359,P-GPS,21.0,6.4,0.0,0.0,2.0,0.6,51.93767575,5.70387256,20,32,14.37,0.015,3.582,3.596,3.597,3.595,-0.1,0,-2.9,3.8,-0.8,14.4,1024,1024,1024,1024,1494,,,,,
68,8,0m 8s,51.93768116,5.70387357,P-GPS,22.3,6.8,0.0,0.0,2.0,0.6,51.93767575,5.70387256,20,32,14.37,0.015,3.582,3.596,3.597,3.595,-0.1,0,-3,3.5,-1.2,14.1,1024,1024,1024,1024,1493,,,,,
69,8.1,0m 8.1s,51.93768107,5.70387366,P-GPS,23.3,7.1,0.0,0.0,2.0,0.6,51.93767575,5.70387256,20,32,14.37,0.015,3.582,3.596,3.597,3.595,-0.1,0,-2.9,3.6,-0.9,13.8,1024,1024,1024,1024,1496,,,,,
70,8.2,0m 8.2s,51.93768114,5.70387364,P-GPS,24.0,7.3,0.0,0.0,2.0,0.6,51.93767575,5.70387256,20,32,14.227,0.006,3.557,3.556,3.554,3.56,-0.1,0,-2.9,3.4,-1.4,13.4,1024,1024,1024,1024,1494,,,,,
71,8.3,0m 8.3s,51.93768096,5.70387361,P-GPS,24.9,7.6,0.0,0.0,1.9,0.6,51.93767575,5.70387256,20,32,14.227,0.006,3.557,3.556,3.554,3.56,-0.2,0,-2.9,3.5,-1.1,13.1,1024,1024,1024,1024,1487,,,,,
72,8.4,0m 8.4s,51.937681,5.70387346,P-GPS,25.9,7.9,0.0,0.0,1.9,0.6,51.93767575,5.70387256,20,32,14.227,0.006,3.557,3.556,3.554,3.56,-0.2,0,-3.1,3.6,-0.1,13.1,1024,1024,1024,1024,1460,,,,,
73,8.5,0m 8.5s,51.9376808,5.70387341,P-GPS,27.2,8.3,0.0,0.0,1.8,0.6,51.93767575,5.70387256,20,32,14.227,0.006,3.557,3.556,3.554,3.56,-0.2,0,-3,3.3,0,13.3,1024,1024,1024,1024,1441,,,,,
74,8.6,0m 8.6s,51.9376807,5.7038734,P-GPS,27.9,8.5,0.0,0.0,1.8,0.6,51.93767575,5.70387256,20,32,14.227,0.006,3.557,3.556,3.554,3.56,-0.2,0,-2.9,3,-0.2,13.5,1024,1024,1024,1024,1460,,,,,
75,8.7,0m 8.7s,51.93768052,5.70387339,P-GPS,28.9,8.8,0.0,0.0,1.8,0.5,51.93767575,5.70387256,20,32,14.227,0.006,3.557,3.556,3.554,3.56,-0.2,0,-2.7,2.6,-0.6,13.6,1024,1024,1024,1024,1467,,,,,
76,8.8,0m 8.8s,51.93768036,5.70387332,P-GPS,29.9,9.1,0.0,0.0,1.7,0.5,51.93767575,5.70387256,20,32,14.227,0.006,3.557,3.556,3.554,3.56,-0.2,0,-2.7,2.8,-0.4,13.5,1024,1024,1024,1024,1473,,,,,
77,8.9,0m 8.9s,51.93768012,5.7038733,P-GPS,30.5,9.3,0.0,0.0,1.6,0.5,51.93767575,5.70387256,20,32,14.227,0.006,3.557,3.556,3.554,3.56,-0.2,0,-2.6,2.1,0.3,13.4,1024,1024,1024,1024,1474,,,,,
78,9,0m 9s,51.93767992,5.7038733,P-GPS,31.2,9.5,0.0,0.0,1.5,0.5,51.93767575,5.70387256,20,32,14.227,0.006,3.557,3.556,3.554,3.56,-0.2,0,-2.6,1.9,0.2,13.6,1024,1024,1024,1024,1467,,,,,
79,9.1,0m 9.1s,51.93767968,5.70387336,P-GPS,31.8,9.7,0.0,0.0,1.5,0.4,51.93767575,5.70387256,20,32,14.227,0.006,3.557,3.556,3.554,3.56,-0.2,0,-2.7,1.7,0,13.9,1024,1024,1024,1024,1466,,,,,
80,9.3,0m 9.3s,51.93767929,5.70387358,P-GPS,33.8,10.3,0.0,0.0,1.3,0.4,51.93767575,5.70387256,20,32,14.112,0.017,3.517,3.531,3.534,3.53,-0.2,0,-2.8,1.2,-0.8,14.3,1024,1024,1024,1024,1419,,,,,
81,9.4,0m 9.4s,51.9376792,5.70387363,P-GPS,34.8,10.6,0.0,0.0,1.2,0.4,51.93767575,5.70387256,20,32,14.112,0.017,3.517,3.531,3.534,3.53,-0.2,0,-2.7,1.3,-1.2,14.5,1024,1024,1024,1024,1406,,,,,
82,9.6,0m 9.6s,51.93767887,5.70387385,P-GPS,36.1,11.0,0.0,0.0,1.2,0.4,51.93767575,5.70387256,20,32,14.112,0.017,3.517,3.531,3.534,3.53,-0.2,0,-2.4,1.7,-1,14.4,1024,1024,1024,1024,1447,,,,,
83,9.7,0m 9.7s,51.9376787,5.70387396,P-GPS,37.1,11.3,0.0,0.0,1.1,0.3,51.93767575,5.70387256,20,32,14.112,0.017,3.517,3.531,3.534,3.53,-0.1,0,-2.4,1.6,-1,14.3,1024,1024,1024,1024,1486,,,,,
84,9.8,0m 9.8s,51.93767867,5.70387417,P-GPS,37.7,11.5,0.0,0.0,1.1,0.3,51.93767575,5.70387256,20,32,14.112,0.017,3.517,3.531,3.534,3.53,-0.1,0,-2.5,1.4,-1.3,14.2,1024,1024,1024,1024,1501,,,,,
85,9.9,0m 9.9s,51.93767845,5.70387433,P-GPS,38.4,11.7,0.0,0.0,1.1,0.3,51.93767575,5.70387256,20,32,14.112,0.017,3.517,3.531,3.534,3.53,-0.1,0,-2.8,1.5,-1.4,14.3,1024,1024,1024,1024,1435,,,,,
86,10,0m 10s,51.9376784,5.7038746,P-GPS,39.4,12.0,0.0,0.0,1.1,0.3,51.93767575,5.70387256,20,32,14.112,0.017,3.517,3.531,3.534,3.53,-0.1,0,-2.7,1.6,-1.8,14.4,1024,1024,1024,1024,1385,,,,,
87,10.1,0m 10.1s,51.93767827,5.70387473,P-GPS,40.4,12.3,0.0,0.0,1.0,0.3,51.93767575,5.70387256,20,32,14.112,0.017,3.517,3.531,3.534,3.53,-0.1,0,-2.5,1.8,-2.1,14.4,1024,1024,1024,1024,1348,,,,,
88,10.2,0m 10.2s,51.93767816,5.70387503,P-GPS,41.0,12.5,0.0,0.0,1.0,0.3,51.93767575,5.70387256,20,32,14.112,0.017,3.517,3.531,3.534,3.53,-0.1,0,-2.3,2,-2.4,14.4,1024,1024,1024,1024,1367,,,,,
89,10.3,0m 10.3s,51.93767805,5.70387515,P-GPS,41.7,12.7,0.0,0.0,1.0,0.3,51.93767575,5.70387256,20,32,14.182,0.017,3.534,3.55,3.551,3.547,-0.1,0,-2.1,2,-2.6,14.3,1024,1024,1024,1024,1352,,,,,
90,10.4,0m 10.4s,51.93767814,5.7038753,P-GPS,42.3,12.9,0.0,0.0,1.1,0.3,51.93767575,5.70387256,20,32,14.182,0.017,3.534,3.55,3.551,3.547,-0.1,0,-2,1.9,-2.7,14.3,1024,1024,1024,1024,1306,,,,,
91,10.5,0m 10.5s,51.937678,5.70387551,P-GPS,43.0,13.1,0.0,0.0,1.1,0.3,51.93767575,5.70387256,20,32,14.182,0.017,3.534,3.55,3.551,3.547,0,0,-1.9,2,-2.7,14.2,1024,1024,1024,1024,1279,,,,,
92,10.6,0m 10.6s,51.93767798,5.70387555,P-GPS,43.3,13.2,0.0,0.0,1.0,0.3,51.93767575,5.70387256,20,32,14.182,0.017,3.534,3.55,3.551,3.547,0,0,-1.6,2,-2.8,14.1,1024,1024,1024,1024,1188,,,,,
93,10.7,0m 10.7s,51.93767791,5.70387558,P-GPS,43.6,13.3,0.0,0.0,1.0,0.3,51.93767575,5.70387256,20,32,14.182,0.017,3.534,3.55,3.551,3.547,0,0,-1.3,2,-2.9,14.1,1024,1024,1024,1024,1083,,,,,
94,10.8,0m 10.8s,51.93767804,5.70387565,P-GPS,44.0,13.4,0.0,0.0,1.1,0.3,51.93767575,5.70387256,20,32,14.182,0.017,3.534,3.55,3.551,3.547,0,0,-0.9,2.1,-2.9,14,1024,1024,1024,1024,1024,,,,,
95,10.9,0m 10.9s,51.93767802,5.70387566,P-GPS,44.0,13.4,0.0,0.0,1.1,0.3,51.93767575,5.70387256,20,32,14.182,0.017,3.534,3.55,3.551,3.547,0,0,-0.6,2.3,-2.7,13.9,1024,1024,1024,1024,1024,,,,,
96,11,0m 11s,51.93767805,5.70387558,P-GPS,44.3,13.5,0.0,0.0,1.1,0.3,51.93767575,5.70387256,20,32,14.182,0.017,3.534,3.55,3.551,3.547,0,0,-0.5,2.4,-2.6,13.8,1024,1024,951,1024,1024,,,,,
97,11.1,0m 11.1s,51.93767809,5.7038755,P-GPS,44.3,13.5,1.1,0.5,1.1,0.3,51.93767575,5.70387256,20,32,14.182,0.017,3.534,3.55,3.551,3.547,0,0,-0.4,2.6,-2.2,13.7,1024,1024,953,1024,1024,,,,,
98,11.2,0m 11.2s,51.93767814,5.70387556,P-GPS,44.3,13.5,0.0,0.0,1.1,0.3,51.93767575,5.70387256,20,32,14.182,0.017,3.534,3.55,3.551,3.547,0,0,-0.3,2.7,-2,13.6,1024,1024,937,1024,1024,,,,,
99,11.3,0m 11.3s,51.93767816,5.70387549,P-GPS,44.3,13.5,0.0,0.0,1.1,0.3,51.93767575,5.70387256,20,32,14.28,0.078,3.582,3.595,3.586,3.517,0,0,-0.2,2.8,-1.7,13.6,1024,1024,916,1024,1024,,,,,
100,11.4,0m 11.4s,51.93767828,5.70387544,P-GPS,44.6,13.6,0.0,0.0,1.1,0.3,51.93767575,5.70387256,20,32,14.28,0.078,3.582,3.595,3.586,3.517,0,0,-0.2,2.9,-1.6,13.7,1024,1024,364,1024,1024,,,,,
101,11.5,0m 11.5s,51.93767832,5.70387542,P-GPS,44.6,13.6,0.0,0.0,1.1,0.3,51.93767575,5.70387256,20,32,14.28,0.078,3.582,3.595,3.586,3.517,0,0,-0.2,3.1,-1.3,13.7,1024,1024,364,1024,1024,,,,,
102,11.6,0m 11.6s,51.93767832,5.7038753,P-GPS,44.6,13.6,0.0,0.0,1.1,0.3,51.93767575,5.70387256,20,32,14.28,0.078,3.582,3.595,3.586,3.517,0,0,-0.1,3.4,-0.9,13.8,1024,1024,364,1024,1024,,,,,
103,11.7,0m 11.7s,51.9376783,5.7038753,P-GPS,44.6,13.6,0.0,0.0,1.1,0.3,51.93767575,5.70387256,20,32,14.28,0.078,3.582,3.595,3.586,3.517,0,0,-0.1,3.5,-0.9,14,1024,1024,364,1024,1024,,,,,
104,11.8,0m 11.8s,51.93767835,5.70387519,P-GPS,44.6,13.6,0.0,0.0,1.1,0.3,51.93767575,5.70387256,20,32,14.28,0.078,3.582,3.595,3.586,3.517,0,0,-0.1,3.5,-0.9,14.1,1024,1024,364,1024,1024,,,,,
105,11.9,0m 11.9s,51.93767832,5.70387519,P-GPS,44.3,13.5,0.0,0.0,1.1,0.3,51.93767575,5.70387256,20,32,14.28,0.078,3.582,3.595,3.586,3.517,0,0,0,3.5,-1.1,14.2,1024,1024,364,1024,1024,,,,,
106,12,0m 12s,51.93767829,5.70387508,P-GPS,44.3,13.5,0.0,0.0,1.1,0.3,51.93767575,5.70387256,20,32,14.28,0.078,3.582,3.595,3.586,3.517,0,0,0,3.3,-1.3,14.2,1024,1024,364,1024,1024,,,,,
107,12.1,0m 12.1s,51.93767822,5.70387511,P-GPS,44.3,13.5,0.0,0.0,1.1,0.3,51.93767575,5.70387256,20,32,14.28,0.078,3.582,3.595,3.586,3.517,0,0,0,2.9,-1.5,14.1,1024,1024,364,1024,1024,,,,,
108,12.3,0m 12.3s,51.9376781,5.70387494,P-GPS,44.0,13.4,0.0,0.0,1.0,0.3,51.93767575,5.70387256,20,32,14.28,0.078,3.582,3.595,3.586,3.517,0,0,0,2.6,-1.2,13.8,1024,1024,364,1024,1024,,,,,
109,12.4,0m 12.4s,51.93767797,5.70387495,P-GPS,44.0,13.4,0.0,0.0,0.9,0.3,51.93767575,5.70387256,20,32,14.416,0.065,3.572,3.599,3.608,3.637,0,0,0,2.5,-1.2,13.8,1024,1024,364,1024,1024,,,,,
110,12.5,0m 12.5s,51.93767797,5.70387493,P-GPS,44.0,13.4,0.0,0.0,0.9,0.3,51.93767575,5.70387256,20,32,14.416,0.065,3.572,3.599,3.608,3.637,0,0,0,2.2,-1,13.8,1024,1024,364,1024,1024,,,,,
111,12.6,0m 12.6s,51.93767788,5.70387483,P-GPS,44.0,13.4,0.0,0.0,0.9,0.3,51.93767575,5.70387256,20,32,14.416,0.065,3.572,3.599,3.608,3.637,0,0,0,2.2,-1.1,13.8,1024,1024,364,1024,1024,,,,,
112,12.7,0m 12.7s,51.93767783,5.70387493,P-GPS,44.0,13.4,0.0,0.0,0.9,0.3,51.93767575,5.70387256,20,32,14.416,0.065,3.572,3.599,3.608,3.637,0,0,0,2.3,-1.1,13.8,1024,1024,364,1024,1024,,,,,
113,12.8,0m 12.8s,51.93767764,5.70387484,P-GPS,44.0,13.4,0.0,0.0,0.9,0.3,51.93767575,5.70387256,20,32,14.416,0.065,3.572,3.599,3.608,3.637,0,0,-0.1,2.2,-1.2,13.9,1024,1024,364,1024,1024,,,,,
114,12.9,0m 12.9s,51.93767765,5.70387485,P-GPS,44.0,13.4,0.0,0.0,0.9,0.3,51.93767575,5.70387256,20,32,14.416,0.065,3.572,3.599,3.608,3.637,0,0,0,2.2,-1.4,14,1024,1024,364,1024,1024,,,,,
115,13,0m 13s,51.93767739,5.70387482,P-GPS,43.6,13.3,0.0,0.0,0.8,0.2,51.93767575,5.70387256,20,32,14.416,0.065,3.572,3.599,3.608,3.637,0,0,0,2.1,-1.5,14.1,1024,1024,1024,1024,1024,,,,,
116,13.1,0m 13.1s,51.9376774,5.70387482,P-GPS,43.6,13.3,0.0,0.0,0.8,0.2,51.93767575,5.70387256,20,32,14.416,0.065,3.572,3.599,3.608,3.637,0,0,0,2.1,-1.7,14.2,1024,1024,1024,1024,1024,,,,,
117,13.2,0m 13.2s,51.93767722,5.7038747,P-GPS,43.6,13.3,0.0,0.0,0.8,0.2,51.93767575,5.70387256,20,32,14.416,0.065,3.572,3.599,3.608,3.637,0,0,0,2.2,-1.9,14.3,1024,1024,1024,1024,1024,,,,,
118,13.3,0m 13.3s,51.93767718,5.70387473,P-GPS,43.6,13.3,0.0,0.0,0.8,0.2,51.93767575,5.70387256,20,32,14.416,0.065,3.572,3.599,3.608,3.637,0,0,-0.1,2.3,-2,14.3,1024,1024,1024,1024,1024,,,,,
119,13.4,0m 13.4s,51.93767701,5.70387467,P-GPS,43.6,13.3,0.0,0.0,0.6,0.2,51.93767575,5.70387256,20,32,14.411,0.014,3.596,3.61,3.605,3.6,0,0,0,2.3,-2,14.2,1024,1024,1024,1024,1024,,,,,
120,13.5,0m 13.5s,51.93767703,5.7038746,P-GPS,43.6,13.3,0.0,0.0,0.6,0.2,51.93767575,5.70387256,20,32,14.411,0.014,3.596,3.61,3.605,3.6,0,0,0,2.2,-2,14.1,1024,1024,1024,1024,1024,,,,,
121,13.6,0m 13.6s,51.93767692,5.70387448,P-GPS,43.6,13.3,0.0,0.0,0.6,0.2,51.93767575,5.70387256,20,32,14.411,0.014,3.596,3.61,3.605,3.6,0,0,0,2.2,-2,14,1024,1024,1024,1024,1024,,,,,
122,13.7,0m 13.7s,51.93767694,5.70387439,P-GPS,43.3,13.2,0.0,0.0,0.6,0.2,51.93767575,5.70387256,20,32,14.411,0.014,3.596,3.61,3.605,3.6,0,0,0,2.4,-1.8,13.8,1024,1024,954,1024,1024,,,,,
123,13.8,0m 13.8s,51.93767675,5.70387432,P-GPS,43.3,13.2,0.0,0.0,0.4,0.1,51.93767575,5.70387256,20,32,14.411,0.014,3.596,3.61,3.605,3.6,0,0,0,2.6,-1.5,13.7,1024,1024,364,1024,1024,,,,,
124,13.9,0m 13.9s,51.93767666,5.70387432,P-GPS,43.3,13.2,0.0,0.0,0.5,0.2,51.93767575,5.70387256,20,32,14.411,0.014,3.596,3.61,3.605,3.6,0,-0.1,0,2.5,-1.3,13.6,1024,1024,364,1024,1024,,,,,
125,14,0m 14s,51.93767645,5.70387408,P-GPS,43.3,13.2,0.0,0.0,0.4,0.1,51.93767575,5.70387256,20,32,14.411,0.014,3.596,3.61,3.605,3.6,-0.1,0,0,2.2,-1.3,13.7,1024,1024,1024,1024,1024,,,,,
126,14.1,0m 14.1s,51.93767634,5.70387394,P-GPS,43.3,13.2,0.0,0.0,0.3,0.1,51.93767575,5.70387256,20,32,14.411,0.014,3.596,3.61,3.605,3.6,-0.1,0,0,1.8,-1.4,13.7,1024,1024,1024,1024,1024,,,,,
127,14.2,0m 14.2s,51.937676,5.70387373,P-GPS,43.0,13.1,0.0,0.0,0.3,0.1,51.93767575,5.70387256,20,32,14.411,0.014,3.596,3.61,3.605,3.6,-0.1,-0.1,0,1.5,-1.4,13.8,1024,1024,1024,1024,1024,,,,,
128,14.3,0m 14.3s,51.93767585,5.70387365,P-GPS,43.0,13.1,0.0,0.0,0.3,0.1,51.93767575,5.70387256,20,32,14.411,0.014,3.596,3.61,3.605,3.6,-0.1,-0.1,0,1,-1.4,13.9,1024,1024,1024,1024,1024,,,,,
129,14.5,0m 14.5s,51.93767556,5.70387332,P-GPS,43.0,13.1,0.7,0.3,0.3,0.1,51.93767575,5.70387256,20,32,14.352,0.012,3.583,3.595,3.591,3.583,0,0,-0.1,0.5,-0.7,13.9,1024,1024,1024,1024,1024,,,,,
130,14.6,0m 14.6s,51.9376753,5.7038732,P-GPS,43.0,13.1,0.0,0.0,0.3,0.1,51.93767575,5.70387256,20,32,14.352,0.012,3.583,3.595,3.591,3.583,0,0,-0.1,0.7,-0.6,14,1024,1024,1024,1024,1024,,,,,
131,14.7,0m 14.7s,51.93767523,5.70387309,P-GPS,43.0,13.1,0.0,0.0,0.0,0.0,51.93767575,5.70387256,20,32,14.352,0.012,3.583,3.595,3.591,3.583,0,0,-0.1,0.7,-0.7,14.2,1024,1024,1024,1024,1024,,,,,
132,14.8,0m 14.8s,51.9376751,5.70387289,P-GPS,43.0,13.1,0.0,0.0,0.3,0.1,51.93767575,5.70387256,20,32,14.352,0.012,3.583,3.595,3.591,3.583,0,0,-0.1,0.8,-0.8,14.2,1024,1024,1024,1024,1142,,,,,
133,14.9,0m 14.9s,51.93767499,5.70387281,P-GPS,43.0,13.1,0.0,0.0,0.0,0.0,51.93767575,5.70387256,20,32,14.352,0.012,3.583,3.595,3.591,3.583,0,0,-0.1,0.9,-0.9,14.2,1024,1024,1024,1024,1219,,,,,
134,15,0m 15s,51.93767483,5.70387278,P-GPS,43.0,13.1,0.0,0.0,0.3,0.1,51.93767575,5.70387256,20,32,14.352,0.012,3.583,3.595,3.591,3.583,0,0,-0.1,0.9,-1.3,14.1,1024,1024,1024,1024,1313,,,,,
135,15.1,0m 15.1s,51.93767479,5.70387273,P-GPS,43.0,13.1,0.0,0.0,0.4,0.1,51.93767575,5.70387256,20,32,14.352,0.012,3.583,3.595,3.591,3.583,0,0,-0.3,0.9,-1.5,13.7,1024,1024,1024,1024,1328,,,,,
136,15.2,0m 15.2s,51.93767463,5.70387253,P-GPS,43.3,13.2,0.0,0.0,0.4,0.1,51.93767575,5.70387256,20,32,14.352,0.012,3.583,3.595,3.591,3.583,0,0,-0.6,0.7,-1.4,13.4,1024,1024,1024,1024,1362,,,,,
137,15.3,0m 15.3s,51.93767466,5.70387256,P-GPS,43.3,13.2,0.0,0.0,0.4,0.1,51.93767575,5.70387256,20,32,14.352,0.012,3.583,3.595,3.591,3.583,0,0,-1,0.4,-1,13.2,1024,1024,1024,1024,1377,,,,,
138,15.4,0m 15.4s,51.93767448,5.70387249,P-GPS,44.0,13.4,1.1,0.5,0.5,0.2,51.93767575,5.70387256,20,32,14.352,0.012,3.583,3.595,3.591,3.583,0,0,-1.2,0.2,-0.6,13.3,1024,1024,1024,1024,1397,,,,,
139,15.5,0m 15.5s,51.93767448,5.70387253,P-GPS,44.0,13.4,1.1,0.5,0.5,0.2,51.93767575,5.70387256,20,32,14.329,0.007,3.581,3.585,3.585,3.578,0,0,-1.3,0.3,-0.3,13.7,1024,1024,1024,1024,1375,,,,,
140,15.6,0m 15.6s,51.93767431,5.7038723,P-GPS,44.6,13.6,1.1,0.5,0.4,0.1,51.93767575,5.70387256,20,32,14.329,0.007,3.581,3.585,3.585,3.578,0,0,-1.5,0.4,-0.5,14.2,1024,1024,1024,1024,1385,,,,,
141,15.7,0m 15.7s,51.93767435,5.70387238,P-GPS,44.9,13.7,0.0,0.0,0.5,0.2,51.93767575,5.70387256,20,32,14.329,0.007,3.581,3.585,3.585,3.578,0,0,-1.6,0.6,-1.1,14.6,1024,1024,1024,1024,1395,,,,,
142,15.8,0m 15.8s,51.93767425,5.70387235,P-GPS,45.6,13.9,0.0,0.0,0.5,0.2,51.93767575,5.70387256,20,32,14.329,0.007,3.581,3.585,3.585,3.578,0,0,-1.8,0.8,-1.5,14.9,1024,1024,1024,1024,1408,,,,,
143,15.9,0m 15.9s,51.93767431,5.70387239,P-GPS,46.3,14.1,0.0,0.0,0.4,0.1,51.93767575,5.70387256,20,32,14.329,0.007,3.581,3.585,3.585,3.578,0,0,-1.9,0.7,-1.9,14.7,1024,1024,1024,1024,1395,,,,,
144,16,0m 16s,51.93767438,5.70387251,P-GPS,46.6,14.2,0.0,0.0,0.4,0.1,51.93767575,5.70387256,20,32,14.329,0.007,3.581,3.585,3.585,3.578,0,0,-1.9,0.4,-2,14.5,1024,1024,1024,1024,1381,,,,,
145,16.1,0m 16.1s,51.93767435,5.70387246,P-GPS,47.2,14.4,0.0,0.0,0.5,0.2,51.93767575,5.70387256,20,32,14.329,0.007,3.581,3.585,3.585,3.578,0,0,-2,0.5,-1.9,14.2,1024,1024,1024,1024,1409,,,,,
146,16.2,0m 16.2s,51.93767443,5.70387255,P-GPS,47.9,14.6,0.0,0.0,0.4,0.1,51.93767575,5.70387256,20,32,14.329,0.007,3.581,3.585,3.585,3.578,0,0,-1.9,0.7,-1.8,14,1024,1024,1024,1024,1395,,,,,
147,16.3,0m 16.3s,51.93767449,5.70387254,P-GPS,48.6,14.8,0.0,0.0,0.4,0.1,51.93767575,5.70387256,20,32,14.329,0.007,3.581,3.585,3.585,3.578,0,0,-2,0.9,-1.5,13.9,1024,1024,1024,1024,1391,,,,,
148,16.4,0m 16.4s,51.93767466,5.70387258,P-GPS,49.2,15.0,0.0,0.0,0.4,0.1,51.93767575,5.70387256,20,32,14.329,0.007,3.581,3.585,3.585,3.578,0,0,-2,1.2,-1.6,13.7,1024,1024,1024,1024,1385,,,,,
149,16.5,0m 16.5s,51.93767469,5.7038726,P-GPS,49.9,15.2,0.0,0.0,0.4,0.1,51.93767575,5.70387256,20,32,14.345,0.011,3.58,3.589,3.591,3.585,0,0,-2,1.4,-1.4,13.8,1024,1024,1024,1024,1379,,,,,
150,16.6,0m 16.6s,51.93767511,5.70387263,P-GPS,50.5,15.4,1.1,0.5,0.3,0.1,51.93767575,5.70387256,20,32,14.345,0.011,3.58,3.589,3.591,3.585,0.1,0,-2,1.7,-1.3,13.8,1024,1024,1024,1024,1383,,,,,
151,16.8,0m 16.8s,51.93767544,5.70387275,P-GPS,51.8,15.8,0.0,0.0,0.0,0.0,51.93767575,5.70387256,20,32,14.345,0.011,3.58,3.589,3.591,3.585,0,0,-1.9,2.5,-1.6,13.8,1024,1024,1024,1024,1384,,,,,
152,16.9,0m 16.9s,51.93767552,5.70387282,P-GPS,52.5,16.0,0.7,0.3,0.0,0.0,51.93767575,5.70387256,20,32,14.345,0.011,3.58,3.589,3.591,3.585,0,0,-1.9,2.9,-1.7,13.9,1024,1024,1024,1024,1382,,,,,
153,17,0m 17s,51.93767572,5.70387286,P-GPS,53.1,16.2,0.0,0.0,0.0,0.0,51.93767575,5.70387256,20,32,14.345,0.011,3.58,3.589,3.591,3.585,0,0,-1.9,3,-1.9,14,1024,1024,1024,1024,1381,,,,,
154,17.1,0m 17.1s,51.93767577,5.70387289,P-GPS,53.8,16.4,0.0,0.0,0.0,0.0,51.93767575,5.70387256,20,32,14.345,0.011,3.58,3.589,3.591,3.585,0,0,-1.9,3,-2.1,13.9,1024,1024,1024,1024,1376,,,,,
155,17.2,0m 17.2s,51.93767596,5.70387287,P-GPS,54.5,16.6,0.0,0.0,0.0,0.0,51.93767575,5.70387256,20,32,14.345,0.011,3.58,3.589,3.591,3.585,0,0,-1.9,2.8,-2,13.9,1024,1024,1024,1024,1376,,,,,
156,17.3,0m 17.3s,51.937676,5.70387285,P-GPS,54.8,16.7,0.0,0.0,0.0,0.0,51.93767575,5.70387256,20,32,14.345,0.011,3.58,3.589,3.591,3.585,0,0,-1.8,2.6,-1.6,13.9,1024,1024,1024,1024,1372,,,,,
157,17.4,0m 17.4s,51.93767615,5.70387271,P-GPS,55.4,16.9,0.0,0.0,0.0,0.0,51.93767575,5.70387256,20,32,14.345,0.011,3.58,3.589,3.591,3.585,0,0,-1.8,2.4,-1.3,13.9,1024,1024,1024,1024,1368,,,,,
158,17.5,0m 17.5s,51.93767616,5.70387266,P-GPS,56.1,17.1,0.0,0.0,0.0,0.0,51.93767575,5.70387256,20,32,14.345,0.011,3.58,3.589,3.591,3.585,0,0,-1.8,2.1,-1.3,13.8,1024,1024,1024,1024,1367,,,,,
159,17.6,0m 17.6s,51.93767623,5.70387253,P-GPS,56.4,17.2,1.1,0.5,0.3,0.1,51.93767575,5.70387256,20,32,14.209,0.022,3.551,3.561,3.558,3.539,0,0,-1.8,2.2,-1.1,13.9,1024,1024,1024,1024,1371,,,,,
160,17.7,0m 17.7s,51.93767632,5.70387252,P-GPS,57.1,17.4,0.0,0.0,0.0,0.0,51.93767575,5.70387256,20,32,14.209,0.022,3.551,3.561,3.558,3.539,0,0,-1.8,2.1,-1.1,13.9,1024,1024,1024,1024,1369,,,,,
161,17.8,0m 17.8s,51.93767637,5.70387242,P-GPS,57.7,17.6,0.0,0.0,0.0,0.0,51.93767575,5.70387256,20,32,14.209,0.022,3.551,3.561,3.558,3.539,0,0,-1.8,2.2,-1.1,14,1024,1024,1024,1024,1369,,,,,
162,17.9,0m 17.9s,51.93767634,5.70387243,P-GPS,58.4,17.8,0.0,0.0,0.0,0.0,51.93767575,5.70387256,20,32,14.209,0.022,3.551,3.561,3.558,3.539,0,0,-1.8,2.1,-1,13.9,1024,1024,1024,1024,1361,,,,,
163,18,0m 18s,51.93767652,5.70387236,P-GPS,58.7,17.9,0.0,0.0,0.0,0.0,51.93767575,5.70387256,20,32,14.209,0.022,3.551,3.561,3.558,3.539,0,0,-1.8,1.9,-0.9,13.8,1024,1024,1024,1024,1312,,,,,
164,18.1,0m 18.1s,51.93767649,5.70387238,P-GPS,59.4,18.1,0.0,0.0,0.3,0.1,51.93767575,5.70387256,20,32,14.209,0.022,3.551,3.561,3.558,3.539,0,0,-1.8,1.9,-0.9,13.7,1024,1024,1024,1024,1237,,,,,
165,18.2,0m 18.2s,51.93767656,5.70387221,P-GPS,60.0,18.3,0.0,0.0,0.4,0.1,51.93767575,5.70387256,20,32,14.209,0.022,3.551,3.561,3.558,3.539,0,0,-1.6,1.9,-0.9,13.7,1024,1024,1024,1024,1148,,,,,
166,18.3,0m 18.3s,51.93767657,5.7038722,P-GPS,60.4,18.4,0.0,0.0,0.3,0.1,51.93767575,5.70387256,20,32,14.209,0.022,3.551,3.561,3.558,3.539,0,0,-1.4,1.8,-1,13.7,1024,1024,1024,1024,1066,,,,,
167,18.4,0m 18.4s,51.93767645,5.70387214,P-GPS,60.7,18.5,0.0,0.0,0.0,0.0,51.93767575,5.70387256,20,32,14.209,0.022,3.551,3.561,3.558,3.539,0,0,-1,1.8,-1.1,13.8,1024,1024,1024,1024,1024,,,,,
168,18.5,0m 18.5s,51.93767644,5.70387219,P-GPS,61.0,18.6,0.0,0.0,0.0,0.0,51.93767575,5.70387256,20,32,14.209,0.022,3.551,3.561,3.558,3.539,0,0,-0.6,1.7,-1.1,13.9,1024,1024,1024,1024,1024,,,,,
169,18.6,0m 18.6s,51.93767655,5.70387196,P-GPS,61.0,18.6,0.0,0.0,0.3,0.1,51.93767575,5.70387256,20,32,14.294,0.048,3.592,3.588,3.57,3.544,0,0,-0.5,1.5,-1.1,13.9,1024,1024,1024,1024,1024,,,,,
170,18.7,0m 18.7s,51.93767654,5.703872,P-GPS,61.4,18.7,0.0,0.0,0.3,0.1,51.93767575,5.70387256,20,32,14.294,0.048,3.592,3.588,3.57,3.544,0,0,-0.3,1.6,-1.2,13.9,1024,1024,1024,1024,1024,,,,,
171,18.8,0m 18.8s,51.93767642,5.70387205,P-GPS,61.4,18.7,0.0,0.0,0.0,0.0,51.93767575,5.70387256,20,32,14.294,0.048,3.592,3.588,3.57,3.544,0,0,-0.2,1.6,-1,13.9,1024,1024,1024,1024,1024,,,,,
172,18.9,0m 18.9s,51.93767648,5.70387204,P-GPS,61.4,18.7,0.0,0.0,0.0,0.0,51.93767575,5.70387256,20,32,14.294,0.048,3.592,3.588,3.57,3.544,0,0,-0.2,1.6,-0.9,13.9,1024,1058,1024,1024,1024,,,,,
173,19,0m 19s,51.93767655,5.70387201,P-GPS,61.4,18.7,0.0,0.0,0.3,0.1,51.93767575,5.70387256,20,32,14.294,0.048,3.592,3.588,3.57,3.544,0,0,-0.1,1.7,-0.9,13.9,1024,1119,1024,1024,1024,,,,,
174,19.1,0m 19.1s,51.93767651,5.70387209,P-GPS,61.4,18.7,0.0,0.0,0.0,0.0,51.93767575,5.70387256,20,32,14.294,0.048,3.592,3.588,3.57,3.544,0,0,-0.1,1.7,-0.9,13.9,1024,1119,1024,1024,1024,,,,,
175,19.2,0m 19.2s,51.93767662,5.70387216,P-GPS,61.4,18.7,0.0,0.0,0.3,0.1,51.93767575,5.70387256,20,32,14.294,0.048,3.592,3.588,3.57,3.544,0,0,0,0,-0.9,14,1024,1156,1024,1024,1024,,,,,
176,19.3,0m 19.3s,51.93767663,5.70387227,P-GPS,61.4,18.7,0.0,0.0,0.0,0.0,51.93767575,5.70387256,20,32,14.294,0.048,3.592,3.588,3.57,3.544,0.1,0.1,0,-2.4,-1,14.1,1024,1159,1024,1024,1024,,,,,
177,19.5,0m 19.5s,51.93767697,5.70387257,P-GPS,61.4,18.7,0.0,0.0,0.4,0.1,51.93767575,5.70387256,20,32,14.294,0.048,3.592,3.588,3.57,3.544,0.2,0.1,0,-4.3,-1.2,14.2,1024,1163,1024,1024,1024,,,,,
178,19.6,0m 19.6s,51.93767713,5.70387289,P-GPS,61.4,18.7,0.7,0.3,0.4,0.1,51.93767575,5.70387256,20,32,14.294,0.048,3.592,3.588,3.57,3.544,0.3,0.1,0,-4.3,-1.2,14.3,1024,1178,1024,1024,1024,,,,,
179,19.7,0m 19.7s,51.93767744,5.70387319,P-GPS,61.4,18.7,0.0,0.0,0.6,0.2,51.93767575,5.70387256,20,32,14.251,0.015,3.556,3.57,3.57,3.555,0.3,0.2,0,-4.6,-1.2,14.3,1024,1182,1024,1024,1024,,,,,
180,19.8,0m 19.8s,51.93767773,5.7038734,P-GPS,61.4,18.7,1.1,0.5,0.8,0.2,51.93767575,5.70387256,20,32,14.251,0.015,3.556,3.57,3.57,3.555,0.4,0.2,0,-4.9,-1.3,14.3,1024,1177,1024,1024,1024,,,,,
181,19.9,0m 19.9s,51.93767816,5.70387379,P-GPS,61.4,18.7,1.1,0.5,0.9,0.3,51.93767575,5.70387256,20,32,14.251,0.015,3.556,3.57,3.57,3.555,0.5,0.2,0,-4.7,-1.3,14.2,1024,1168,1024,1024,1024,,,,,
182,20,0m 20s,51.9376787,5.70387431,P-GPS,61.4,18.7,1.5,0.7,1.2,0.4,51.93767575,5.70387256,20,32,14.251,0.015,3.556,3.57,3.57,3.555,0.5,0.2,0,-4.3,-1.3,14.1,1024,1158,1024,1024,1024,,,,,
183,20.1,0m 20.1s,51.93767907,5.70387466,P-GPS,61.0,18.6,1.5,0.7,1.3,0.4,51.93767575,5.70387256,20,32,14.251,0.015,3.556,3.57,3.57,3.555,0.6,0.3,0,-3.6,-1.5,14,1024,1025,1024,1024,1024,,,,,
184,20.2,0m 20.2s,51.93767975,5.70387516,P-GPS,61.0,18.6,1.5,0.7,1.6,0.5,51.93767575,5.70387256,20,32,14.251,0.015,3.556,3.57,3.57,3.555,0.6,0.3,0,-1.3,-1.7,13.9,1024,1024,1024,1024,1024,,,,,
185,20.3,0m 20.3s,51.93768033,5.70387563,P-GPS,61.0,18.6,2.1,0.9,1.8,0.6,51.93767575,5.70387256,20,32,14.251,0.015,3.556,3.57,3.57,3.555,0.6,0.3,0,1,-2,13.8,1024,1024,1024,1024,1024,,,,,
186,20.4,0m 20.4s,51.93768105,5.70387605,P-GPS,61.0,18.6,2.1,0.9,2.1,0.6,51.93767575,5.70387256,20,32,14.251,0.015,3.556,3.57,3.57,3.555,0.6,0.2,0,2.6,-2.2,13.7,1024,1024,1024,1024,1024,,,,,
187,20.5,0m 20.5s,51.93768149,5.70387642,P-GPS,61.0,18.6,1.5,0.7,2.2,0.7,51.93767575,5.70387256,20,32,14.251,0.015,3.556,3.57,3.57,3.555,0.5,0.2,0,3.8,-2.5,13.7,1024,1024,1024,1024,1024,,,,,
188,20.6,0m 20.6s,51.93768213,5.70387688,P-GPS,61.0,18.6,1.5,0.7,2.5,0.8,51.93767575,5.70387256,20,32,14.251,0.015,3.556,3.57,3.57,3.555,0.4,0.2,0,4.7,-2.6,13.6,1024,1096,1024,1024,1024,,,,,
189,20.7,0m 20.7s,51.93768255,5.70387722,P-GPS,61.0,18.6,1.5,0.7,2.7,0.8,51.93767575,5.70387256,20,32,14.396,0.021,3.592,3.607,3.609,3.588,0.4,0.2,0,4.6,-2.5,13.8,1024,1156,1024,1024,1024,,,,,
190,20.8,0m 20.8s,51.93768313,5.70387743,P-GPS,61.0,18.6,1.1,0.5,2.9,0.9,51.93767575,5.70387256,20,32,14.396,0.021,3.592,3.607,3.609,3.588,0.4,0.2,0,-0.3,-1.9,14.1,1024,1197,1024,1024,1024,,,,,
191,20.9,0m 20.9s,51.93768356,5.70387774,P-GPS,61.0,18.6,1.5,0.7,3.1,0.9,51.93767575,5.70387256,20,32,14.396,0.021,3.592,3.607,3.609,3.588,0.5,0.2,0,-4.4,-1.6,14.1,1024,1204,1024,1024,1024,,,,,
192,21,0m 21s,51.93768425,5.70387811,P-GPS,61.0,18.6,1.5,0.7,3.3,1.0,51.93767575,5.70387256,20,32,14.396,0.021,3.592,3.607,3.609,3.588,0.6,0.2,0,-6.1,-1.3,14.1,1024,1224,1024,1024,1024,,,,,
193,21.1,0m 21.1s,51.93768499,5.70387857,P-GPS,61.0,18.6,2.1,0.9,3.6,1.1,51.93767575,5.70387256,20,32,14.396,0.021,3.592,3.607,3.609,3.588,0.7,0.2,0,-6.8,-1.3,14,1024,1228,1024,1024,1024,,,,,
194,21.2,0m 21.2s,51.93768573,5.70387889,P-GPS,61.0,18.6,2.1,0.9,3.9,1.2,51.93767575,5.70387256,20,32,14.396,0.021,3.592,3.607,3.609,3.588,0.8,0.3,0,-7,-1.4,13.8,1024,1224,1024,1024,1024,,,,,
195,21.3,0m 21.3s,51.93768654,5.70387934,P-GPS,61.0,18.6,2.1,0.9,4.2,1.3,51.93767575,5.70387256,20,32,14.396,0.021,3.592,3.607,3.609,3.588,0.9,0.3,0,-6.9,-1.5,13.7,1024,1223,1024,1024,1024,,,,,
196,21.4,0m 21.4s,51.93768785,5.70387998,P-GPS,61.0,18.6,2.8,1.3,4.7,1.4,51.93767575,5.70387256,20,32,14.396,0.021,3.592,3.607,3.609,3.588,1,0.3,0,-6.8,-1.5,13.6,1024,1220,1024,1024,1024,,,,,
197,21.5,0m 21.5s,51.93768884,5.7038805,P-GPS,60.7,18.5,3.0,1.3,5.1,1.6,51.93767575,5.70387256,20,32,14.396,0.021,3.592,3.607,3.609,3.588,1.1,0.3,0,-6.6,-1.4,13.5,1024,1221,1024,1024,1024,,,,,
198,21.7,0m 21.7s,51.93769124,5.70388148,P-GPS,60.7,18.5,2.9,1.3,6.0,1.8,51.93767575,5.70387256,20,32,14.396,0.021,3.592,3.607,3.609,3.588,1.2,0.3,0,-6.2,-1,13.3,1024,1213,1024,1024,1024,,,,,
199,21.8,0m 21.8s,51.93769278,5.70388202,P-GPS,60.7,18.5,3.3,1.5,6.6,2.0,51.93767575,5.70387256,20,32,14.396,0.021,3.592,3.607,3.609,3.588,1.3,0.4,0,-5.8,-0.9,13.3,983,1167,1024,1024,1024,,,,,
200,21.9,0m 21.9s,51.93769402,5.70388261,P-GPS,60.7,18.5,3.7,1.6,7.0,2.1,51.93767575,5.70387256,20,32,14.396,0.021,3.592,3.607,3.609,3.588,1.3,0.4,0,-5,-1,13.1,948,1166,1024,1024,1024,,,,,
201,22,0m 22s,51.93769562,5.70388311,P-GPS,60.7,18.5,3.7,1.6,7.6,2.3,51.93767575,5.70387256,20,32,14.396,0.021,3.592,3.607,3.609,3.588,1.4,0.4,0,-3.6,-2,13,910,1166,1024,1024,1024,,,,,
202,22.1,0m 22.1s,51.93769694,5.7038837,P-GPS,60.7,18.5,3.8,1.7,8.1,2.5,51.93767575,5.70387256,20,32,14.396,0.021,3.592,3.607,3.609,3.588,1.4,0.3,0,-3.2,-3.1,13,848,1154,1024,1024,1024,,,,,
203,22.2,0m 22.2s,51.93769859,5.7038843,P-GPS,60.7,18.5,4.0,1.8,8.7,2.7,51.93767575,5.70387256,20,32,14.396,0.021,3.592,3.607,3.609,3.588,1.5,0.3,0,-2.7,-5.4,13,810,1115,1024,1024,1024,,,,,
204,22.3,0m 22.3s,51.9377001,5.70388468,P-GPS,60.7,18.5,4.0,1.8,9.3,2.8,51.93767575,5.70387256,20,32,14.396,0.021,3.592,3.607,3.609,3.588,1.5,0.2,0,-1.8,-8.6,12.9,822,1118,1024,1024,1024,,,,,
205,22.4,0m 22.4s,51.93770179,5.70388493,P-GPS,60.7,18.5,4.2,1.9,9.9,3.0,51.93767575,5.70387256,20,32,14.396,0.021,3.592,3.607,3.609,3.588,1.5,0,0,-0.6,-11,12.9,873,1117,1024,1024,1024,,,,,
206,22.5,0m 22.5s,51.93770321,5.70388495,P-GPS,60.7,18.5,4.0,1.8,10.4,3.2,51.93767575,5.70387256,20,32,14.396,0.021,3.592,3.607,3.609,3.588,1.5,0,0,0,-10.8,12.9,910,1119,1024,1024,1024,,,,,
207,22.6,0m 22.6s,51.93770507,5.70388478,P-GPS,60.7,18.5,4.0,1.8,11.0,3.4,51.93767575,5.70387256,20,32,14.396,0.021,3.592,3.607,3.609,3.588,1.6,-0.1,-0.1,0.2,-9.2,13.1,932,1115,1024,1024,1024,,,,,
208,22.7,0m 22.7s,51.93770649,5.7038844,P-GPS,60.7,18.5,4.1,1.8,11.5,3.5,51.93767575,5.70387256,20,32,14.396,0.021,3.592,3.607,3.609,3.588,1.5,-0.3,0,0,-7.1,13.3,952,1117,1024,1024,1024,,,,,
209,22.8,0m 22.8s,51.93770815,5.70388373,P-GPS,60.7,18.5,4.0,1.8,12.1,3.7,51.93767575,5.70387256,20,32,14.289,0.012,3.568,3.578,3.577,3.566,1.5,-0.3,0,-0.3,-5.4,13.5,976,1114,1024,1024,1024,,,,,
210,22.9,0m 22.9s,51.93770983,5.70388344,P-GPS,60.7,18.5,4.2,1.9,12.7,3.9,51.93767575,5.70387256,20,32,14.289,0.012,3.568,3.578,3.577,3.566,1.5,-0.4,0,-0.8,-3.8,13.7,998,1101,1024,1024,1024,,,,,
211,23,0m 23s,51.93771155,5.70388252,P-GPS,60.7,18.5,4.4,2.0,13.3,4.0,51.93767575,5.70387256,20,32,14.289,0.012,3.568,3.578,3.577,3.566,1.6,-0.4,0,-1,-1.8,13.9,1001,1096,1024,1024,1024,,,,,
212,23.1,0m 23.1s,51.93771299,5.70388191,P-GPS,60.7,18.5,4.1,1.8,13.7,4.2,51.93767575,5.70387256,20,32,14.289,0.012,3.568,3.578,3.577,3.566,1.5,-0.4,-0.1,-1.1,-0.5,14,1001,1095,1024,1024,1024,,,,,
213,23.2,0m 23.2s,51.93771497,5.70388119,P-GPS,60.7,18.5,4.4,2.0,14.4,4.4,51.93767575,5.70387256,20,32,14.289,0.012,3.568,3.578,3.577,3.566,1.6,-0.3,0,-0.9,0.2,14.2,988,1092,1024,1024,1024,,,,,
214,23.3,0m 23.3s,51.93771646,5.70388068,P-GPS,60.7,18.5,4.5,2.0,15.0,4.6,51.93767575,5.70387256,20,32,14.289,0.012,3.568,3.578,3.577,3.566,1.6,-0.3,-0.1,-0.7,0.3,14.8,976,1086,1024,1024,1024,,,,,
215,23.4,0m 23.4s,51.93771822,5.70387993,P-GPS,60.7,18.5,4.2,1.9,15.6,4.7,51.93767575,5.70387256,20,32,14.289,0.012,3.568,3.578,3.577,3.566,1.7,-0.3,-0.1,-0.5,-0.2,15.4,999,1096,1024,1024,1024,,,,,
216,23.5,0m 23.5s,51.93771977,5.70387951,P-GPS,60.7,18.5,4.2,1.9,16.1,4.9,51.93767575,5.70387256,20,32,14.289,0.012,3.568,3.578,3.577,3.566,1.7,-0.2,0,-0.5,-0.5,15.3,1004,1094,1024,1024,1024,,,,,
217,23.6,0m 23.6s,51.93772187,5.70387885,P-GPS,61.0,18.6,4.5,2.0,16.9,5.1,51.93767575,5.70387256,20,32,14.289,0.012,3.568,3.578,3.577,3.566,1.8,-0.2,-0.1,-1,-0.7,15.1,1024,1093,1024,1024,1024,,,,,
218,23.7,0m 23.7s,51.9377235,5.70387845,P-GPS,61.0,18.6,4.7,2.1,17.5,5.3,51.93767575,5.70387256,20,32,14.289,0.012,3.568,3.578,3.577,3.566,1.8,-0.2,-0.1,-1.4,-0.7,14.9,1006,1093,1024,1024,1024,,,,,
219,23.9,0m 23.9s,51.93772733,5.70387725,P-GPS,61.0,18.6,4.6,2.1,18.8,5.7,51.93767575,5.70387256,20,32,14.23,0.017,3.55,3.562,3.567,3.551,1.9,-0.2,0,-1.1,-0.6,14.6,978,1094,1024,1024,1024,,,,,
220,24,0m 24s,51.93772943,5.70387692,P-GPS,61.0,18.6,5.0,2.2,19.6,6.0,51.93767575,5.70387256,20,32,14.23,0.017,3.55,3.562,3.567,3.551,1.9,-0.2,0,-0.5,-0.5,14.5,968,1093,1024,1024,1024,,,,,
221,24.1,0m 24.1s,51.93773121,5.70387665,P-GPS,61.0,18.6,4.7,2.1,20.3,6.2,51.93767575,5.70387256,20,32,14.23,0.017,3.55,3.562,3.567,3.551,1.9,-0.1,0,-0.1,-0.5,14.3,971,1090,1024,1024,1024,,,,,
222,24.2,0m 24.2s,51.93773348,5.70387602,P-GPS,61.0,18.6,5.2,2.3,21.1,6.4,51.93767575,5.70387256,20,32,14.23,0.017,3.55,3.562,3.567,3.551,1.9,-0.1,0,0.2,-0.6,13.5,974,1090,1024,1024,1024,,,,,
223,24.3,0m 24.3s,51.93773524,5.70387582,P-GPS,60.7,18.5,5.1,2.3,21.7,6.6,51.93767575,5.70387256,20,32,14.23,0.017,3.55,3.562,3.567,3.551,1.9,-0.1,0,0.3,-0.6,12.5,984,1089,1024,1024,1024,,,,,
224,24.4,0m 24.4s,51.93773727,5.70387556,P-GPS,60.7,18.5,4.7,2.1,22.5,6.8,51.93767575,5.70387256,20,32,14.23,0.017,3.55,3.562,3.567,3.551,1.9,-0.1,0,0.1,-0.8,11.8,985,1087,1024,1024,1024,,,,,
225,24.5,0m 24.5s,51.93773921,5.70387522,P-GPS,60.7,18.5,5.0,2.2,23.2,7.1,51.93767575,5.70387256,20,32,14.23,0.017,3.55,3.562,3.567,3.551,1.8,-0.1,-0.1,-0.1,-0.7,11.1,1007,1099,1024,1024,1024,,,,,
226,24.7,0m 24.7s,51.93774288,5.70387491,P-GPS,60.7,18.5,4.5,2.0,24.5,7.5,51.93767575,5.70387256,20,32,14.23,0.017,3.55,3.562,3.567,3.551,1.8,0,-0.1,-0.5,-0.4,10.6,944,1059,1024,1024,1024,,,,,
227,24.8,0m 24.8s,51.93774513,5.7038747,P-GPS,60.7,18.5,4.9,2.2,25.3,7.7,51.93767575,5.70387256,20,32,14.23,0.017,3.55,3.562,3.567,3.551,1.9,0,0,-0.8,0.2,10.7,910,1044,1024,1024,1024,,,,,
228,24.9,0m 24.9s,51.93774684,5.70387461,P-GPS,60.7,18.5,5.0,2.2,25.9,7.9,51.93767575,5.70387256,20,32,14.222,0.012,3.549,3.561,3.56,3.552,1.8,0,0,-0.2,-1,11,909,1047,1024,1024,1024,,,,,
229,25,0m 25s,51.93774869,5.70387449,P-GPS,60.7,18.5,4.5,2.0,26.6,8.1,51.93767575,5.70387256,20,32,14.222,0.012,3.549,3.561,3.56,3.552,1.9,0,0,0.1,-3,11.6,926,1052,1024,1024,1024,,,,,
230,25.1,0m 25.1s,51.9377507,5.70387438,P-GPS,60.7,18.5,4.7,2.1,27.3,8.3,51.93767575,5.70387256,20,32,14.222,0.012,3.549,3.561,3.56,3.552,1.9,0,0,0.5,-4.1,12.7,969,1078,1024,1024,1024,,,,,
231,25.2,0m 25.2s,51.9377527,5.70387432,P-GPS,60.7,18.5,5.0,2.2,28.1,8.6,51.93767575,5.70387256,20,32,14.222,0.012,3.549,3.561,3.56,3.552,1.9,0,0,1.1,-4.5,13.8,972,1081,1024,1024,1024,,,,,
232,25.3,0m 25.3s,51.93775447,5.70387416,P-GPS,60.7,18.5,4.7,2.1,28.7,8.8,51.93767575,5.70387256,20,32,14.222,0.012,3.549,3.561,3.56,3.552,1.9,-0.1,0,1,-3.9,14.6,930,1049,1024,1024,1024,,,,,
233,25.5,0m 25.5s,51.93775835,5.70387359,P-GPS,60.7,18.5,4.7,2.1,30.1,9.2,51.93767575,5.70387256,20,32,14.222,0.012,3.549,3.561,3.56,3.552,1.9,-0.2,0,1.4,-3.7,15.1,1002,1071,1024,1024,1024,,,,,
234,25.6,0m 25.6s,51.93776019,5.70387324,P-GPS,60.7,18.5,4.8,2.1,30.8,9.4,51.93767575,5.70387256,20,32,14.222,0.012,3.549,3.561,3.56,3.552,1.9,-0.2,0,1.8,-3.5,15,1024,1052,1024,1024,1024,,,,,
235,25.7,0m 25.7s,51.9377621,5.70387292,P-GPS,60.4,18.4,4.6,2.1,31.5,9.6,51.93767575,5.70387256,20,32,14.222,0.012,3.549,3.561,3.56,3.552,1.8,-0.2,0,2.1,-2.3,14.8,1024,1024,1024,1024,1024,,,,,
236,25.8,0m 25.8s,51.93776394,5.70387239,P-GPS,60.4,18.4,4.7,2.1,32.2,9.8,51.93767575,5.70387256,20,32,14.222,0.012,3.549,3.561,3.56,3.552,1.8,-0.2,0,2.6,-1.4,14.5,1024,1024,1024,1024,1024,,,,,
237,25.9,0m 25.9s,51.93776556,5.70387202,P-GPS,60.4,18.4,4.4,2.0,32.8,10.0,51.93767575,5.70387256,20,32,14.222,0.012,3.549,3.561,3.56,3.552,1.7,-0.2,0,3.5,-1,14.3,1024,1024,1024,1024,1024,,,,,
238,26.1,0m 26.1s,51.93776879,5.70387116,P-GPS,60.4,18.4,4.0,1.8,33.9,10.3,51.93767575,5.70387256,20,31,14.229,0.007,3.554,3.558,3.561,3.556,1.5,-0.2,-0.1,6.5,-0.1,14.7,1024,1024,1024,1024,1024,,,,,
239,26.2,0m 26.2s,51.93777017,5.70387056,P-GPS,60.4,18.4,3.9,1.7,34.4,10.5,51.93767575,5.70387256,20,31,14.229,0.007,3.554,3.558,3.561,3.556,1.4,-0.3,0,8.2,0.2,15.1,1024,1024,1024,1024,1024,,,,,
240,26.3,0m 26.3s,51.9377716,5.70387011,P-GPS,60.4,18.4,3.5,1.6,35.0,10.7,51.93767575,5.70387256,20,31,14.229,0.007,3.554,3.558,3.561,3.556,1.2,-0.2,-0.1,9.1,1.7,15.8,1024,1024,1024,1024,1024,,,,,
241,26.4,0m 26.4s,51.93777274,5.70386961,P-GPS,60.7,18.5,3.2,1.4,35.4,10.8,51.93767575,5.70387256,20,31,14.229,0.007,3.554,3.558,3.561,3.556,1.1,-0.2,-0.1,9.9,3,16.6,1024,1024,1024,1024,1024,,,,,
242,26.5,0m 26.5s,51.93777369,5.70386922,P-GPS,60.7,18.5,2.6,1.2,35.7,10.9,51.93767575,5.70387256,20,31,14.229,0.007,3.554,3.558,3.561,3.556,0.9,-0.2,-0.1,9.7,3.5,17.2,1024,1024,1024,1024,1024,,,,,
243,26.7,0m 26.7s,51.93777536,5.70386847,P-GPS,60.7,18.5,2.2,1.0,36.3,11.1,51.93767575,5.70387256,20,31,14.229,0.007,3.554,3.558,3.561,3.556,0.7,-0.2,-0.1,8.7,2.3,16.6,1024,1024,1024,1024,1024,,,,,
244,26.8,0m 26.8s,51.9377759,5.70386807,P-GPS,60.7,18.5,2.0,0.9,36.5,11.1,51.93767575,5.70387256,20,31,14.229,0.007,3.554,3.558,3.561,3.556,0.6,-0.2,-0.1,7.7,2.5,15.4,1024,1024,1024,1024,1024,,,,,
245,26.9,0m 26.9s,51.93777648,5.70386778,P-GPS,60.7,18.5,1.5,0.7,36.8,11.2,51.93767575,5.70387256,20,31,14.229,0.007,3.554,3.558,3.561,3.556,0.6,-0.1,0,6.3,2.3,14.6,1024,1024,1024,1024,1024,,,,,
246,27,0m 27s,51.93777713,5.70386744,P-GPS,60.7,18.5,1.8,0.8,37.0,11.3,51.93767575,5.70387256,20,31,14.229,0.007,3.554,3.558,3.561,3.556,0.5,-0.1,0,5.6,1.8,14.1,1024,1024,1024,1024,1024,,,,,
247,27.1,0m 27.1s,51.93777762,5.70386724,P-GPS,60.7,18.5,1.5,0.7,37.2,11.3,51.93767575,5.70387256,20,31,14.194,0.022,3.535,3.556,3.557,3.546,0.5,-0.1,-0.1,5.2,1.1,13.7,1024,1024,1024,1024,1024,,,,,
248,27.2,0m 27.2s,51.93777802,5.70386719,P-GPS,60.7,18.5,1.5,0.7,37.3,11.4,51.93767575,5.70387256,20,31,14.194,0.022,3.535,3.556,3.557,3.546,0.4,-0.1,-0.1,4.9,0.9,13.4,1024,1024,1024,1024,1024,,,,,
249,27.3,0m 27.3s,51.93777859,5.703867,P-GPS,60.7,18.5,1.5,0.7,37.5,11.4,51.93767575,5.70387256,20,31,14.194,0.022,3.535,3.556,3.557,3.546,0.4,-0.1,0,4.7,0.8,13.3,1024,1024,1024,1024,1024,,,,,
250,27.4,0m 27.4s,51.93777889,5.70386673,P-GPS,60.7,18.5,1.1,0.5,37.6,11.5,51.93767575,5.70387256,20,31,14.194,0.022,3.535,3.556,3.557,3.546,0.4,-0.1,0,4.3,0.7,13.2,1024,1024,1024,1024,1024,,,,,
251,27.5,0m 27.5s,51.93777926,5.7038666,P-GPS,60.7,18.5,1.1,0.5,37.8,11.5,51.93767575,5.70387256,20,31,14.194,0.022,3.535,3.556,3.557,3.546,0.4,0,0,4,0.6,13.3,1024,1024,1024,1024,1024,,,,,
252,27.6,0m 27.6s,51.93777957,5.70386656,P-GPS,60.7,18.5,1.1,0.5,37.9,11.6,51.93767575,5.70387256,20,31,14.194,0.022,3.535,3.556,3.557,3.546,0.3,0,0,3.6,0.4,13.4,1024,1024,1024,1024,1024,,,,,
253,27.7,0m 27.7s,51.93777992,5.70386651,P-GPS,60.7,18.5,0.0,0.0,38.0,11.6,51.93767575,5.70387256,20,31,14.194,0.022,3.535,3.556,3.557,3.546,0.3,0,0,3.3,0.2,13.3,1024,1024,1024,1024,1024,,,,,
254,27.8,0m 27.8s,51.93778026,5.70386644,P-GPS,60.7,18.5,1.1,0.5,38.1,11.6,51.93767575,5.70387256,20,31,14.194,0.022,3.535,3.556,3.557,3.546,0.3,0,0,3.2,0,13.3,1024,1024,1024,1024,1024,,,,,
255,27.9,0m 27.9s,51.93778063,5.70386645,P-GPS,60.7,18.5,0.0,0.0,38.3,11.7,51.93767575,5.70387256,20,31,14.194,0.022,3.535,3.556,3.557,3.546,0.3,0,0,3.2,0,13.4,1024,1024,1024,1024,1024,,,,,
256,28,0m 28s,51.93778095,5.7038664,P-GPS,60.7,18.5,0.0,0.0,38.4,11.7,51.93767575,5.70387256,20,31,14.194,0.022,3.535,3.556,3.557,3.546,0.3,0,0,3.2,-0.4,13.5,1024,1024,1024,1024,1024,,,,,
257,28.1,0m 28.1s,51.9377813,5.70386641,P-GPS,60.7,18.5,0.0,0.0,38.5,11.7,51.93767575,5.70387256,20,31,14.226,0.016,3.555,3.564,3.559,3.548,0.3,0,0,3.4,-0.2,13.5,1024,1024,1024,1024,1024,,,,,
258,28.2,0m 28.2s,51.93778167,5.70386638,P-GPS,61.0,18.6,0.0,0.0,38.7,11.8,51.93767575,5.70387256,20,31,14.226,0.016,3.555,3.564,3.559,3.548,0.4,0,-0.1,3.7,-0.4,13.5,1024,1024,1024,1024,1024,,,,,
259,28.3,0m 28.3s,51.93778204,5.7038664,P-GPS,61.0,18.6,0.0,0.0,38.8,11.8,51.93767575,5.70387256,20,31,14.226,0.016,3.555,3.564,3.559,3.548,0.3,0,0,3.6,-0.3,13.5,1024,1024,1024,1024,1024,,,,,
260,28.4,0m 28.4s,51.93778247,5.70386644,P-GPS,61.0,18.6,0.0,0.0,39.0,11.9,51.93767575,5.70387256,20,31,14.226,0.016,3.555,3.564,3.559,3.548,0.3,0,0,3.7,-0.1,13.6,1024,1024,1024,1024,1024,,,,,
261,28.5,0m 28.5s,51.93778286,5.70386643,P-GPS,61.0,18.6,1.5,0.7,39.1,11.9,51.93767575,5.70387256,20,31,14.226,0.016,3.555,3.564,3.559,3.548,0.3,0,0,3.7,0.3,13.6,1024,1024,1024,1024,1024,,,,,
262,28.6,0m 28.6s,51.93778316,5.70386645,P-GPS,61.0,18.6,1.1,0.5,39.2,11.9,51.93767575,5.70387256,20,31,14.226,0.016,3.555,3.564,3.559,3.548,0.3,0,0,3.5,0.1,13.7,1024,1024,1024,1024,1024,,,,,
263,28.7,0m 28.7s,51.9377835,5.7038665,P-GPS,61.0,18.6,0.0,0.0,39.3,12.0,51.93767575,5.70387256,20,31,14.226,0.016,3.555,3.564,3.559,3.548,0.3,0,0,3.2,0,13.8,1024,1024,1024,1024,1024,,,,,
264,28.8,0m 28.8s,51.93778395,5.70386639,P-GPS,61.0,18.6,1.1,0.5,39.5,12.0,51.93767575,5.70387256,20,31,14.226,0.016,3.555,3.564,3.559,3.548,0.3,0,0,3.4,-0.4,13.8,1024,1024,1024,1024,1024,,,,,
265,28.9,0m 28.9s,51.9377843,5.70386644,P-GPS,61.0,18.6,0.0,0.0,39.6,12.1,51.93767575,5.70387256,20,31,14.226,0.016,3.555,3.564,3.559,3.548,0.3,0,-0.1,3.6,-0.4,13.8,1024,1024,1024,1024,1024,,,,,
266,29,0m 29s,51.9377847,5.70386647,P-GPS,61.0,18.6,1.1,0.5,39.8,12.1,51.93767575,5.70387256,20,31,14.226,0.016,3.555,3.564,3.559,3.548,0.3,0,-0.1,4.1,-0.1,14,1024,1024,1024,1024,1024,,,,,
267,29.1,0m 29.1s,51.93778513,5.70386648,P-GPS,61.0,18.6,1.5,0.7,39.9,12.2,51.93767575,5.70387256,20,31,14.242,0.02,3.548,3.568,3.567,3.559,0.3,0,0,4.2,-0.3,14.3,1024,1024,1024,1024,1024,,,,,
268,29.3,0m 29.3s,51.93778581,5.7038666,P-GPS,61.0,18.6,1.0,0.4,40.2,12.2,51.93767575,5.70387256,20,31,14.242,0.02,3.548,3.568,3.567,3.559,0.3,0,0,4.5,-0.7,14.7,1024,1024,1024,1024,1024,,,,,
269,29.4,0m 29.4s,51.93778615,5.70386656,P-GPS,61.0,18.6,1.0,0.4,40.3,12.3,51.93767575,5.70387256,20,31,14.242,0.02,3.548,3.568,3.567,3.559,0.3,0,0,4.5,-0.5,14.9,1024,1024,1024,1024,1024,,,,,
270,29.5,0m 29.5s,51.93778643,5.70386667,P-GPS,61.0,18.6,1.1,0.5,40.4,12.3,51.93767575,5.70387256,20,31,14.242,0.02,3.548,3.568,3.567,3.559,0.2,0,0,4.3,-0.3,14.7,1024,1024,1024,1024,1024,,,,,
271,29.6,0m 29.6s,51.9377868,5.70386685,P-GPS,61.0,18.6,0.0,0.0,40.5,12.4,51.93767575,5.70387256,20,31,14.242,0.02,3.548,3.568,3.567,3.559,0.3,0.1,0,3.9,-0.1,14.6,1024,1024,1024,1024,1024,,,,,
272,29.7,0m 29.7s,51.93778706,5.70386702,P-GPS,61.0,18.6,0.0,0.0,40.6,12.4,51.93767575,5.70387256,20,31,14.242,0.02,3.548,3.568,3.567,3.559,0.2,0.1,0,3.7,-0.2,14.5,1024,1024,1024,1024,1024,,,,,
273,29.8,0m 29.8s,51.93778738,5.70386704,P-GPS,61.0,18.6,0.0,0.0,40.7,12.4,51.93767575,5.70387256,20,31,14.242,0.02,3.548,3.568,3.567,3.559,0.2,0.1,0,3.6,-0.5,14.5,1024,1024,1024,1024,1024,,,,,
274,29.9,0m 29.9s,51.93778763,5.70386726,P-GPS,61.0,18.6,1.1,0.5,40.8,12.4,51.93767575,5.70387256,20,31,14.242,0.02,3.548,3.568,3.567,3.559,0.2,0.1,0,3.6,-0.5,14.6,1024,1024,1024,1024,1024,,,,,
275,30,0m 30s,51.93778787,5.70386745,P-GPS,61.0,18.6,0.0,0.0,40.9,12.5,51.93767575,5.70387256,20,31,14.242,0.02,3.548,3.568,3.567,3.559,0.2,0.1,-0.1,3.9,-0.3,14.6,1024,1024,1024,1024,1024,,,,,
276,30.1,0m 30.1s,51.9377882,5.70386767,P-GPS,61.4,18.7,0.0,0.0,41.0,12.5,51.93767575,5.70387256,20,31,14.242,0.02,3.548,3.568,3.567,3.559,0.2,0.1,0,3.7,-1,14.7,1024,1024,1024,1024,1024,,,,,
277,30.2,0m 30.2s,51.93778844,5.70386799,P-GPS,61.4,18.7,1.1,0.5,41.1,12.5,51.93767575,5.70387256,20,31,14.275,0.023,3.555,3.574,3.578,3.568,0.2,0.1,0,3.9,-1.5,14.6,1024,1024,1024,1024,1024,,,,,
278,30.3,0m 30.3s,51.93778863,5.70386826,P-GPS,61.4,18.7,0.0,0.0,41.2,12.6,51.93767575,5.70387256,20,31,14.275,0.023,3.555,3.574,3.578,3.568,0.1,0.1,0,4.2,-1.7,14.4,1024,1024,1024,1024,1024,,,,,
279,30.4,0m 30.4s,51.93778887,5.70386838,P-GPS,61.4,18.7,1.1,0.5,41.3,12.6,51.93767575,5.70387256,20,31,14.275,0.023,3.555,3.574,3.578,3.568,0.1,0.1,0,4.3,-1.8,14.3,1024,1024,1024,1024,1024,,,,,
280,30.5,0m 30.5s,51.93778902,5.70386863,P-GPS,61.4,18.7,1.1,0.5,41.3,12.6,51.93767575,5.70387256,20,31,14.275,0.023,3.555,3.574,3.578,3.568,0.1,0.1,0,4.2,-2.2,14.2,1024,1024,1024,1024,1024,,,,,
281,30.6,0m 30.6s,51.93778909,5.70386891,P-GPS,61.4,18.7,0.0,0.0,41.4,12.6,51.93767575,5.70387256,20,31,14.275,0.023,3.555,3.574,3.578,3.568,0.1,0.1,0,4.4,-2.4,14.1,1024,1024,1024,1024,1024,,,,,
282,30.7,0m 30.7s,51.93778926,5.70386909,P-GPS,61.0,18.6,0.0,0.0,41.4,12.6,51.93767575,5.70387256,20,31,14.275,0.023,3.555,3.574,3.578,3.568,0,0.1,0,4.7,-2.4,13.9,1024,1024,1024,1024,1024,,,,,
283,30.8,0m 30.8s,51.93778927,5.70386921,P-GPS,61.0,18.6,0.0,0.0,41.4,12.6,51.93767575,5.70387256,20,31,14.275,0.023,3.555,3.574,3.578,3.568,0,0,0,4.8,-2.4,13.8,1024,1024,1024,1024,1024,,,,,
284,30.9,0m 30.9s,51.93778933,5.70386932,P-GPS,61.0,18.6,1.1,0.5,41.4,12.6,51.93767575,5.70387256,20,31,14.275,0.023,3.555,3.574,3.578,3.568,0,0,0,4.7,-2.2,13.7,1024,1024,1024,1024,1024,,,,,
285,31,0m 31s,51.93778934,5.7038693,P-GPS,61.0,18.6,0.0,0.0,41.4,12.6,51.93767575,5.70387256,20,31,14.275,0.023,3.555,3.574,3.578,3.568,0,0,0,4.7,-2.2,13.6,1024,1024,1024,1024,1024,,,,,
286,31.1,0m 31.1s,51.93778935,5.70386935,P-GPS,61.0,18.6,0.0,0.0,41.4,12.6,51.93767575,5.70387256,20,31,14.275,0.023,3.555,3.574,3.578,3.568,0,0,0,4.7,-2,13.6,1024,1024,1024,1024,1024,,,,,
287,31.2,0m 31.2s,51.93778925,5.70386929,P-GPS,61.0,18.6,0.0,0.0,41.4,12.6,51.93767575,5.70387256,20,31,14.284,0.017,3.56,3.577,3.577,3.57,0,0,0,4.2,-2.1,13.6,1024,1024,1024,1024,1024,,,,,
288,31.3,0m 31.3s,51.93778923,5.70386926,P-GPS,61.0,18.6,0.0,0.0,41.4,12.6,51.93767575,5.70387256,20,31,14.284,0.017,3.56,3.577,3.577,3.57,0,0,0,3.9,-2,13.6,1024,1024,1024,1024,1024,,,,,
289,31.4,0m 31.4s,51.93778915,5.70386918,P-GPS,61.0,18.6,0.0,0.0,41.4,12.6,51.93767575,5.70387256,20,31,14.284,0.017,3.56,3.577,3.577,3.57,0,0,0,3.3,-1.6,13.6,1024,1024,1024,1024,1024,,,,,
290,31.5,0m 31.5s,51.93778909,5.70386913,P-GPS,61.0,18.6,0.0,0.0,41.4,12.6,51.93767575,5.70387256,20,31,14.284,0.017,3.56,3.577,3.577,3.57,0,0,0,2.8,-1.4,13.7,1024,1024,1024,1024,1024,,,,,
291,31.6,0m 31.6s,51.937789,5.7038691,P-GPS,61.0,18.6,0.0,0.0,41.3,12.6,51.93767575,5.70387256,20,31,14.284,0.017,3.56,3.577,3.577,3.57,0,0,0,2.3,-1.2,13.8,1024,1024,1024,1024,1024,,,,,
292,31.7,0m 31.7s,51.93778898,5.70386913,P-GPS,61.0,18.6,0.0,0.0,41.3,12.6,51.93767575,5.70387256,20,31,14.284,0.017,3.56,3.577,3.577,3.57,0,0,0,2,-1,13.9,1024,1024,1024,1024,1024,,,,,
293,31.8,0m 31.8s,51.93778889,5.70386898,P-GPS,61.0,18.6,0.0,0.0,41.3,12.6,51.93767575,5.70387256,20,31,14.284,0.017,3.56,3.577,3.577,3.57,0,0,0,1.6,-1.2,14.1,1024,1024,1024,1024,1024,,,,,
294,32,0m 32s,51.93778885,5.70386898,P-GPS,61.0,18.6,0.0,0.0,41.3,12.6,51.93767575,5.70387256,20,31,14.284,0.017,3.56,3.577,3.577,3.57,0,0,0,1.6,-1.5,14.3,1024,1080,1024,1024,1024,,,,,
295,32.1,0m 32.1s,51.93778889,5.70386905,P-GPS,61.0,18.6,0.0,0.0,41.3,12.6,51.93767575,5.70387256,20,31,14.284,0.017,3.56,3.577,3.577,3.57,0,0,0,1.6,-1.4,14.3,1024,1083,1024,1024,1024,,,,,
296,32.2,0m 32.2s,51.93778895,5.70386892,P-GPS,61.0,18.6,0.0,0.0,41.3,12.6,51.93767575,5.70387256,20,31,14.284,0.017,3.56,3.577,3.577,3.57,0,0,0,1.6,-1.1,14.3,1024,1086,1024,1024,1024,,,,,
297,32.4,0m 32.4s,51.93778904,5.70386906,P-GPS,61.0,18.6,0.0,0.0,41.3,12.6,51.93767575,5.70387256,20,31,14.266,0.018,3.557,3.574,3.575,3.56,0,0,0,1.2,-0.8,14.1,1024,1092,1024,1024,1024,,,,,
298,32.5,0m 32.5s,51.93778911,5.70386908,P-GPS,61.0,18.6,0.0,0.0,41.4,12.6,51.93767575,5.70387256,20,31,14.266,0.018,3.557,3.574,3.575,3.56,0,0.1,0,1.1,-0.7,13.9,1024,1097,1024,1024,1024,,,,,
299,32.6,0m 32.6s,51.93778927,5.70386931,P-GPS,61.0,18.6,0.0,0.0,41.4,12.6,51.93767575,5.70387256,20,31,14.266,0.018,3.557,3.574,3.575,3.56,0.1,0.1,0,0.9,-0.9,13.8,1024,1090,1024,1024,1024,,,,,
300,32.7,0m 32.7s,51.93778934,5.70386944,P-GPS,61.0,18.6,0.0,0.0,41.4,12.6,51.93767575,5.70387256,20,31,14.266,0.018,3.557,3.574,3.575,3.56,0.1,0.1,0,0.9,-1.2,13.8,1024,1088,1024,1024,1024,,,,,
301,32.8,0m 32.8s,51.93778962,5.70386967,P-GPS,61.0,18.6,1.1,0.5,41.5,12.7,51.93767575,5.70387256,20,31,14.266,0.018,3.557,3.574,3.575,3.56,0.1,0.1,0,1,-1.2,13.7,1024,1088,1024,1024,1024,,,,,
302,32.9,0m 32.9s,51.93778983,5.70386986,P-GPS,61.0,18.6,0.0,0.0,41.6,12.7,51.93767575,5.70387256,20,31,14.266,0.018,3.557,3.574,3.575,3.56,0.2,0.1,0,0.9,-1.1,13.7,1024,1077,1024,1024,1024,,,,,
303,33,0m 33s,51.93779017,5.7038701,P-GPS,61.0,18.6,0.0,0.0,41.7,12.7,51.93767575,5.70387256,20,31,14.266,0.018,3.557,3.574,3.575,3.56,0.2,0.1,0,0.7,-0.9,13.6,1024,1075,1024,1024,1024,,,,,
304,33.1,0m 33.1s,51.9377904,5.7038704,P-GPS,61.0,18.6,1.5,0.7,41.8,12.7,51.93767575,5.70387256,20,31,14.266,0.018,3.557,3.574,3.575,3.56,0.2,0.2,0,1.1,-1,13.6,1024,1081,1024,1024,1024,,,,,
305,33.2,0m 33.2s,51.93779076,5.70387068,P-GPS,60.7,18.5,0.0,0.0,42.0,12.8,51.93767575,5.70387256,20,31,14.266,0.018,3.557,3.574,3.575,3.56,0.2,0.2,0,1.2,-1,13.6,1024,1078,1024,1024,1024,,,,,
306,33.3,0m 33.3s,51.93779103,5.70387102,P-GPS,60.7,18.5,1.5,0.7,42.1,12.8,51.93767575,5.70387256,20,31,14.266,0.018,3.557,3.574,3.575,3.56,0.3,0.2,0,1.2,-1,13.7,1024,1075,1024,1024,1024,,,,,
307,33.4,0m 33.4s,51.93779144,5.70387134,P-GPS,60.7,18.5,1.1,0.5,42.2,12.9,51.93767575,5.70387256,20,31,14.261,0.015,3.558,3.571,3.573,3.559,0.3,0.2,0,1.6,-1.1,13.5,1024,1078,1024,1024,1024,,,,,
308,33.5,0m 33.5s,51.93779182,5.70387168,P-GPS,60.7,18.5,1.1,0.5,42.3,12.9,51.93767575,5.70387256,20,31,14.261,0.015,3.558,3.571,3.573,3.559,0.3,0.2,0,1.5,-0.9,13.4,1024,1079,1024,1024,1024,,,,,
309,33.6,0m 33.6s,51.93779216,5.70387207,P-GPS,60.7,18.5,1.5,0.7,42.5,12.9,51.93767575,5.70387256,20,31,14.261,0.015,3.558,3.571,3.573,3.559,0.3,0.2,0,1.5,-0.9,13.2,1024,1088,1024,1024,1024,,,,,
310,33.7,0m 33.7s,51.93779248,5.70387252,P-GPS,60.7,18.5,1.1,0.5,42.6,13.0,51.93767575,5.70387256,20,31,14.261,0.015,3.558,3.571,3.573,3.559,0.3,0.3,0,1.3,-0.9,13.1,1024,1102,1024,1024,1024,,,,,
